[
  {
    "nome_comune": "Agliè",
    "codice_provincia": "TO",
    "lat": 45.3634669,
    "lon": 7.7686057,
    "superficie_kmq": 13.2407,
    "flag_capoluogo": "NO",
    "pageviews": 17039,
    "provincia": "Torino",
    "regione": "Piemonte"
  },
  {
    "nome_comune": "Airasca",
    "codice_provincia": "TO",
    "lat": 44.9170061,
    "lon": 7.4845045,
    "superficie_kmq": 16.0327,
    "flag_capoluogo": "NO",
    "pageviews": 5716,
    "provincia": "Torino",
    "regione": "Piemonte"
  },
  {
    "nome_comune": "Ala di Stura",
    "codice_provincia": "TO",
    "lat": 45.3149237,
    "lon": 7.304367,
    "superficie_kmq": 46.1749,
    "flag_capoluogo": "NO",
    "pageviews": 6717,
    "provincia": "Torino",
    "regione": "Piemonte"
  },
  {
    "nome_comune": "Albiano d'Ivrea",
    "codice_provincia": "TO",
    "lat": 45.4336463,
    "lon": 7.9495045,
    "superficie_kmq": 11.677,
    "flag_capoluogo": "NO",
    "pageviews": 2857,
    "provincia": "Torino",
    "regione": "Piemonte"
  },
  {
    "nome_comune": "Almese",
    "codice_provincia": "TO",
    "lat": 45.1176654,
    "lon": 7.3951859,
    "superficie_kmq": 17.9879,
    "flag_capoluogo": "NO",
    "pageviews": 6276,
    "provincia": "Torino",
    "regione": "Piemonte"
  },
  {
    "nome_comune": "Alpette",
    "codice_provincia": "TO",
    "lat": 45.4099554,
    "lon": 7.5785615,
    "superficie_kmq": 5.5557,
    "flag_capoluogo": "NO",
    "pageviews": 5859,
    "provincia": "Torino",
    "regione": "Piemonte"
  },
  {
    "nome_comune": "Alpignano",
    "codice_provincia": "TO",
    "lat": 45.0944686,
    "lon": 7.5242628,
    "superficie_kmq": 11.8972,
    "flag_capoluogo": "NO",
    "pageviews": 12441,
    "provincia": "Torino",
    "regione": "Piemonte"
  },
  {
    "nome_comune": "Andezeno",
    "codice_provincia": "TO",
    "lat": 45.0358946,
    "lon": 7.8699281,
    "superficie_kmq": 7.4766,
    "flag_capoluogo": "NO",
    "pageviews": 4532,
    "provincia": "Torino",
    "regione": "Piemonte"
  },
  {
    "nome_comune": "Andrate",
    "codice_provincia": "TO",
    "lat": 45.5283724,
    "lon": 7.8738546,
    "superficie_kmq": 9.3573,
    "flag_capoluogo": "NO",
    "pageviews": 4322,
    "provincia": "Torino",
    "regione": "Piemonte"
  },
  {
    "nome_comune": "Angrogna",
    "codice_provincia": "TO",
    "lat": 44.8436082,
    "lon": 7.2242658,
    "superficie_kmq": 38.4088,
    "flag_capoluogo": "NO",
    "pageviews": 6114,
    "provincia": "Torino",
    "regione": "Piemonte"
  },
  {
    "nome_comune": "Arignano",
    "codice_provincia": "TO",
    "lat": 45.0437016,
    "lon": 7.901897,
    "superficie_kmq": 7.9611,
    "flag_capoluogo": "NO",
    "pageviews": 3692,
    "provincia": "Torino",
    "regione": "Piemonte"
  },
  {
    "nome_comune": "Avigliana",
    "codice_provincia": "TO",
    "lat": 45.0793678,
    "lon": 7.3963516,
    "superficie_kmq": 22.9933,
    "flag_capoluogo": "NO",
    "pageviews": 33518,
    "provincia": "Torino",
    "regione": "Piemonte"
  },
  {
    "nome_comune": "Azeglio",
    "codice_provincia": "TO",
    "lat": 45.4248532,
    "lon": 7.9947436,
    "superficie_kmq": 9.8641,
    "flag_capoluogo": "NO",
    "pageviews": 3415,
    "provincia": "Torino",
    "regione": "Piemonte"
  },
  {
    "nome_comune": "Bairo",
    "codice_provincia": "TO",
    "lat": 45.3862699,
    "lon": 7.7569141,
    "superficie_kmq": 7.0805,
    "flag_capoluogo": "NO",
    "pageviews": 3417,
    "provincia": "Torino",
    "regione": "Piemonte"
  },
  {
    "nome_comune": "Balangero",
    "codice_provincia": "TO",
    "lat": 45.270003,
    "lon": 7.5192683,
    "superficie_kmq": 12.9315,
    "flag_capoluogo": "NO",
    "pageviews": 4336,
    "provincia": "Torino",
    "regione": "Piemonte"
  },
  {
    "nome_comune": "Baldissero Canavese",
    "codice_provincia": "TO",
    "lat": 45.4084019,
    "lon": 7.7443534,
    "superficie_kmq": 4.6465,
    "flag_capoluogo": "NO",
    "pageviews": 1949,
    "provincia": "Torino",
    "regione": "Piemonte"
  },
  {
    "nome_comune": "Baldissero Torinese",
    "codice_provincia": "TO",
    "lat": 45.0684291,
    "lon": 7.8177989,
    "superficie_kmq": 15.5118,
    "flag_capoluogo": "NO",
    "pageviews": 5846,
    "provincia": "Torino",
    "regione": "Piemonte"
  },
  {
    "nome_comune": "Balme",
    "codice_provincia": "TO",
    "lat": 45.3023388,
    "lon": 7.2183609,
    "superficie_kmq": 62.7379,
    "flag_capoluogo": "NO",
    "pageviews": 10490,
    "provincia": "Torino",
    "regione": "Piemonte"
  },
  {
    "nome_comune": "Banchette",
    "codice_provincia": "TO",
    "lat": 45.4608248,
    "lon": 7.8563818,
    "superficie_kmq": 2.0108,
    "flag_capoluogo": "NO",
    "pageviews": 2562,
    "provincia": "Torino",
    "regione": "Piemonte"
  },
  {
    "nome_comune": "Barbania",
    "codice_provincia": "TO",
    "lat": 45.2904913,
    "lon": 7.6304781,
    "superficie_kmq": 12.7821,
    "flag_capoluogo": "NO",
    "pageviews": 4350,
    "provincia": "Torino",
    "regione": "Piemonte"
  },
  {
    "nome_comune": "Bardonecchia",
    "codice_provincia": "TO",
    "lat": 45.0781507,
    "lon": 6.7038976,
    "superficie_kmq": 132.3111,
    "flag_capoluogo": "NO",
    "pageviews": 73826,
    "provincia": "Torino",
    "regione": "Piemonte"
  },
  {
    "nome_comune": "Barone Canavese",
    "codice_provincia": "TO",
    "lat": 45.3277288,
    "lon": 7.8705578,
    "superficie_kmq": 3.9888,
    "flag_capoluogo": "NO",
    "pageviews": 1397,
    "provincia": "Torino",
    "regione": "Piemonte"
  },
  {
    "nome_comune": "Beinasco",
    "codice_provincia": "TO",
    "lat": 45.0220788,
    "lon": 7.5790186,
    "superficie_kmq": 6.9173,
    "flag_capoluogo": "NO",
    "pageviews": 9967,
    "provincia": "Torino",
    "regione": "Piemonte"
  },
  {
    "nome_comune": "Bibiana",
    "codice_provincia": "TO",
    "lat": 44.797598,
    "lon": 7.2898046,
    "superficie_kmq": 18.4711,
    "flag_capoluogo": "NO",
    "pageviews": 3696,
    "provincia": "Torino",
    "regione": "Piemonte"
  },
  {
    "nome_comune": "Bobbio Pellice",
    "codice_provincia": "TO",
    "lat": 44.8076971,
    "lon": 7.1170209,
    "superficie_kmq": 94.1049,
    "flag_capoluogo": "NO",
    "pageviews": 8488,
    "provincia": "Torino",
    "regione": "Piemonte"
  },
  {
    "nome_comune": "Bollengo",
    "codice_provincia": "TO",
    "lat": 45.4733455,
    "lon": 7.9453007,
    "superficie_kmq": 14.3398,
    "flag_capoluogo": "NO",
    "pageviews": 3072,
    "provincia": "Torino",
    "regione": "Piemonte"
  },
  {
    "nome_comune": "Borgaro Torinese",
    "codice_provincia": "TO",
    "lat": 45.152005,
    "lon": 7.6578945,
    "superficie_kmq": 10.8136,
    "flag_capoluogo": "NO",
    "pageviews": 11473,
    "provincia": "Torino",
    "regione": "Piemonte"
  },
  {
    "nome_comune": "Borgiallo",
    "codice_provincia": "TO",
    "lat": 45.4167662,
    "lon": 7.6677454,
    "superficie_kmq": 7.0506,
    "flag_capoluogo": "NO",
    "pageviews": 2114,
    "provincia": "Torino",
    "regione": "Piemonte"
  },
  {
    "nome_comune": "Borgofranco d'Ivrea",
    "codice_provincia": "TO",
    "lat": 45.5124142,
    "lon": 7.8594264,
    "superficie_kmq": 13.3007,
    "flag_capoluogo": "NO",
    "pageviews": 4509,
    "provincia": "Torino",
    "regione": "Piemonte"
  },
  {
    "nome_comune": "Borgomasino",
    "codice_provincia": "TO",
    "lat": 45.3616875,
    "lon": 7.9887949,
    "superficie_kmq": 12.097,
    "flag_capoluogo": "NO",
    "pageviews": 2097,
    "provincia": "Torino",
    "regione": "Piemonte"
  },
  {
    "nome_comune": "Borgone Susa",
    "codice_provincia": "TO",
    "lat": 45.1231172,
    "lon": 7.2412061,
    "superficie_kmq": 4.9407,
    "flag_capoluogo": "NO",
    "pageviews": 2706,
    "provincia": "Torino",
    "regione": "Piemonte"
  },
  {
    "nome_comune": "Bosconero",
    "codice_provincia": "TO",
    "lat": 45.2686534,
    "lon": 7.7651464,
    "superficie_kmq": 10.9326,
    "flag_capoluogo": "NO",
    "pageviews": 8736,
    "provincia": "Torino",
    "regione": "Piemonte"
  },
  {
    "nome_comune": "Brandizzo",
    "codice_provincia": "TO",
    "lat": 45.1775115,
    "lon": 7.8414393,
    "superficie_kmq": 6.3944,
    "flag_capoluogo": "NO",
    "pageviews": 7055,
    "provincia": "Torino",
    "regione": "Piemonte"
  },
  {
    "nome_comune": "Bricherasio",
    "codice_provincia": "TO",
    "lat": 44.8255744,
    "lon": 7.3028322,
    "superficie_kmq": 22.8629,
    "flag_capoluogo": "NO",
    "pageviews": 7569,
    "provincia": "Torino",
    "regione": "Piemonte"
  },
  {
    "nome_comune": "Brosso",
    "codice_provincia": "TO",
    "lat": 45.4926955,
    "lon": 7.8033171,
    "superficie_kmq": 11.1146,
    "flag_capoluogo": "NO",
    "pageviews": 3378,
    "provincia": "Torino",
    "regione": "Piemonte"
  },
  {
    "nome_comune": "Brozolo",
    "codice_provincia": "TO",
    "lat": 45.1173992,
    "lon": 8.0712843,
    "superficie_kmq": 8.9214,
    "flag_capoluogo": "NO",
    "pageviews": 2196,
    "provincia": "Torino",
    "regione": "Piemonte"
  },
  {
    "nome_comune": "Bruino",
    "codice_provincia": "TO",
    "lat": 45.0202276,
    "lon": 7.4677006,
    "superficie_kmq": 5.7648,
    "flag_capoluogo": "NO",
    "pageviews": 4526,
    "provincia": "Torino",
    "regione": "Piemonte"
  },
  {
    "nome_comune": "Brusasco",
    "codice_provincia": "TO",
    "lat": 45.1560453,
    "lon": 8.0601414,
    "superficie_kmq": 14.221,
    "flag_capoluogo": "NO",
    "pageviews": 3578,
    "provincia": "Torino",
    "regione": "Piemonte"
  },
  {
    "nome_comune": "Bruzolo",
    "codice_provincia": "TO",
    "lat": 45.1431777,
    "lon": 7.1939889,
    "superficie_kmq": 12.5302,
    "flag_capoluogo": "NO",
    "pageviews": 2575,
    "provincia": "Torino",
    "regione": "Piemonte"
  },
  {
    "nome_comune": "Buriasco",
    "codice_provincia": "TO",
    "lat": 44.8735338,
    "lon": 7.4118721,
    "superficie_kmq": 14.7791,
    "flag_capoluogo": "NO",
    "pageviews": 2839,
    "provincia": "Torino",
    "regione": "Piemonte"
  },
  {
    "nome_comune": "Burolo",
    "codice_provincia": "TO",
    "lat": 45.4840947,
    "lon": 7.9319799,
    "superficie_kmq": 5.4655,
    "flag_capoluogo": "NO",
    "pageviews": 2175,
    "provincia": "Torino",
    "regione": "Piemonte"
  },
  {
    "nome_comune": "Busano",
    "codice_provincia": "TO",
    "lat": 45.3288942,
    "lon": 7.6554181,
    "superficie_kmq": 5.0997,
    "flag_capoluogo": "NO",
    "pageviews": 2211,
    "provincia": "Torino",
    "regione": "Piemonte"
  },
  {
    "nome_comune": "Bussoleno",
    "codice_provincia": "TO",
    "lat": 45.1373365,
    "lon": 7.1493898,
    "superficie_kmq": 37.4083,
    "flag_capoluogo": "NO",
    "pageviews": 10554,
    "provincia": "Torino",
    "regione": "Piemonte"
  },
  {
    "nome_comune": "Buttigliera Alta",
    "codice_provincia": "TO",
    "lat": 45.0669813,
    "lon": 7.4368254,
    "superficie_kmq": 8.1008,
    "flag_capoluogo": "NO",
    "pageviews": 4997,
    "provincia": "Torino",
    "regione": "Piemonte"
  },
  {
    "nome_comune": "Cafasse",
    "codice_provincia": "TO",
    "lat": 45.2446575,
    "lon": 7.5181803,
    "superficie_kmq": 10.4286,
    "flag_capoluogo": "NO",
    "pageviews": 3762,
    "provincia": "Torino",
    "regione": "Piemonte"
  },
  {
    "nome_comune": "Caluso",
    "codice_provincia": "TO",
    "lat": 45.3078184,
    "lon": 7.8914899,
    "superficie_kmq": 39.3056,
    "flag_capoluogo": "NO",
    "pageviews": 9242,
    "provincia": "Torino",
    "regione": "Piemonte"
  },
  {
    "nome_comune": "Cambiano",
    "codice_provincia": "TO",
    "lat": 44.9734653,
    "lon": 7.7792962,
    "superficie_kmq": 14.1118,
    "flag_capoluogo": "NO",
    "pageviews": 9065,
    "provincia": "Torino",
    "regione": "Piemonte"
  },
  {
    "nome_comune": "Campiglione Fenile",
    "codice_provincia": "TO",
    "lat": 44.8021531,
    "lon": 7.3250696,
    "superficie_kmq": 11.2164,
    "flag_capoluogo": "NO",
    "pageviews": 79,
    "provincia": "Torino",
    "regione": "Piemonte"
  },
  {
    "nome_comune": "Candia Canavese",
    "codice_provincia": "TO",
    "lat": 45.3281447,
    "lon": 7.8865424,
    "superficie_kmq": 9.3217,
    "flag_capoluogo": "NO",
    "pageviews": 3620,
    "provincia": "Torino",
    "regione": "Piemonte"
  },
  {
    "nome_comune": "Candiolo",
    "codice_provincia": "TO",
    "lat": 44.9603898,
    "lon": 7.6013874,
    "superficie_kmq": 12.0907,
    "flag_capoluogo": "NO",
    "pageviews": 6301,
    "provincia": "Torino",
    "regione": "Piemonte"
  },
  {
    "nome_comune": "Canischio",
    "codice_provincia": "TO",
    "lat": 45.3743281,
    "lon": 7.5951811,
    "superficie_kmq": 11.9514,
    "flag_capoluogo": "NO",
    "pageviews": 2432,
    "provincia": "Torino",
    "regione": "Piemonte"
  },
  {
    "nome_comune": "Cantalupa",
    "codice_provincia": "TO",
    "lat": 44.9402685,
    "lon": 7.3326819,
    "superficie_kmq": 11.3822,
    "flag_capoluogo": "NO",
    "pageviews": 5448,
    "provincia": "Torino",
    "regione": "Piemonte"
  },
  {
    "nome_comune": "Cantoira",
    "codice_provincia": "TO",
    "lat": 45.3432131,
    "lon": 7.3817884,
    "superficie_kmq": 23.0569,
    "flag_capoluogo": "NO",
    "pageviews": 5850,
    "provincia": "Torino",
    "regione": "Piemonte"
  },
  {
    "nome_comune": "Caprie",
    "codice_provincia": "TO",
    "lat": 45.1178288,
    "lon": 7.332553,
    "superficie_kmq": 16.3344,
    "flag_capoluogo": "NO",
    "pageviews": 3325,
    "provincia": "Torino",
    "regione": "Piemonte"
  },
  {
    "nome_comune": "Caravino",
    "codice_provincia": "TO",
    "lat": 45.3986173,
    "lon": 7.9601459,
    "superficie_kmq": 11.4834,
    "flag_capoluogo": "NO",
    "pageviews": 2988,
    "provincia": "Torino",
    "regione": "Piemonte"
  },
  {
    "nome_comune": "Carema",
    "codice_provincia": "TO",
    "lat": 45.5844506,
    "lon": 7.8123537,
    "superficie_kmq": 10.5759,
    "flag_capoluogo": "NO",
    "pageviews": 5117,
    "provincia": "Torino",
    "regione": "Piemonte"
  },
  {
    "nome_comune": "Carignano",
    "codice_provincia": "TO",
    "lat": 44.9080171,
    "lon": 7.6760348,
    "superficie_kmq": 49.9511,
    "flag_capoluogo": "NO",
    "pageviews": 13427,
    "provincia": "Torino",
    "regione": "Piemonte"
  },
  {
    "nome_comune": "Carmagnola",
    "codice_provincia": "TO",
    "lat": 44.8464786,
    "lon": 7.7180847,
    "superficie_kmq": 95.9817,
    "flag_capoluogo": "NO",
    "pageviews": 40862,
    "provincia": "Torino",
    "regione": "Piemonte"
  },
  {
    "nome_comune": "Casalborgone",
    "codice_provincia": "TO",
    "lat": 45.1299488,
    "lon": 7.9405843,
    "superficie_kmq": 20.2674,
    "flag_capoluogo": "NO",
    "pageviews": 3981,
    "provincia": "Torino",
    "regione": "Piemonte"
  },
  {
    "nome_comune": "Cascinette d'Ivrea",
    "codice_provincia": "TO",
    "lat": 45.4787767,
    "lon": 7.9038942,
    "superficie_kmq": 2.2658,
    "flag_capoluogo": "NO",
    "pageviews": 1533,
    "provincia": "Torino",
    "regione": "Piemonte"
  },
  {
    "nome_comune": "Caselette",
    "codice_provincia": "TO",
    "lat": 45.1058965,
    "lon": 7.4832283,
    "superficie_kmq": 14.1999,
    "flag_capoluogo": "NO",
    "pageviews": 4731,
    "provincia": "Torino",
    "regione": "Piemonte"
  },
  {
    "nome_comune": "Caselle Torinese",
    "codice_provincia": "TO",
    "lat": 45.1772268,
    "lon": 7.647983,
    "superficie_kmq": 23.8012,
    "flag_capoluogo": "NO",
    "pageviews": 8577,
    "provincia": "Torino",
    "regione": "Piemonte"
  },
  {
    "nome_comune": "Castagneto Po",
    "codice_provincia": "TO",
    "lat": 45.1606279,
    "lon": 7.8870392,
    "superficie_kmq": 11.4318,
    "flag_capoluogo": "NO",
    "pageviews": 7826,
    "provincia": "Torino",
    "regione": "Piemonte"
  },
  {
    "nome_comune": "Castagnole Piemonte",
    "codice_provincia": "TO",
    "lat": 44.8985413,
    "lon": 7.5665658,
    "superficie_kmq": 17.2175,
    "flag_capoluogo": "NO",
    "pageviews": 3304,
    "provincia": "Torino",
    "regione": "Piemonte"
  },
  {
    "nome_comune": "Castellamonte",
    "codice_provincia": "TO",
    "lat": 45.3833442,
    "lon": 7.7098255,
    "superficie_kmq": 38.2575,
    "flag_capoluogo": "NO",
    "pageviews": 12738,
    "provincia": "Torino",
    "regione": "Piemonte"
  },
  {
    "nome_comune": "Castelnuovo Nigra",
    "codice_provincia": "TO",
    "lat": 45.4372093,
    "lon": 7.6952282,
    "superficie_kmq": 28.6535,
    "flag_capoluogo": "NO",
    "pageviews": 5673,
    "provincia": "Torino",
    "regione": "Piemonte"
  },
  {
    "nome_comune": "Castiglione Torinese",
    "codice_provincia": "TO",
    "lat": 45.1233326,
    "lon": 7.8162459,
    "superficie_kmq": 14.2039,
    "flag_capoluogo": "NO",
    "pageviews": 4496,
    "provincia": "Torino",
    "regione": "Piemonte"
  },
  {
    "nome_comune": "Cavagnolo",
    "codice_provincia": "TO",
    "lat": 45.1521104,
    "lon": 8.0513851,
    "superficie_kmq": 12.6643,
    "flag_capoluogo": "NO",
    "pageviews": 4352,
    "provincia": "Torino",
    "regione": "Piemonte"
  },
  {
    "nome_comune": "Cavour",
    "codice_provincia": "TO",
    "lat": 44.7841236,
    "lon": 7.3751914,
    "superficie_kmq": 48.6086,
    "flag_capoluogo": "NO",
    "pageviews": 3311,
    "provincia": "Torino",
    "regione": "Piemonte"
  },
  {
    "nome_comune": "Cercenasco",
    "codice_provincia": "TO",
    "lat": 44.8612625,
    "lon": 7.5012234,
    "superficie_kmq": 13.2433,
    "flag_capoluogo": "NO",
    "pageviews": 2403,
    "provincia": "Torino",
    "regione": "Piemonte"
  },
  {
    "nome_comune": "Ceres",
    "codice_provincia": "TO",
    "lat": 45.3130672,
    "lon": 7.3893349,
    "superficie_kmq": 27.9603,
    "flag_capoluogo": "NO",
    "pageviews": 1249,
    "provincia": "Torino",
    "regione": "Piemonte"
  },
  {
    "nome_comune": "Ceresole Reale",
    "codice_provincia": "TO",
    "lat": 45.4325151,
    "lon": 7.2325365,
    "superficie_kmq": 100.0257,
    "flag_capoluogo": "NO",
    "pageviews": 26186,
    "provincia": "Torino",
    "regione": "Piemonte"
  },
  {
    "nome_comune": "Cesana Torinese",
    "codice_provincia": "TO",
    "lat": 44.9524243,
    "lon": 6.794207,
    "superficie_kmq": 121.8391,
    "flag_capoluogo": "NO",
    "pageviews": 17612,
    "provincia": "Torino",
    "regione": "Piemonte"
  },
  {
    "nome_comune": "Chialamberto",
    "codice_provincia": "TO",
    "lat": 45.3628552,
    "lon": 7.34588,
    "superficie_kmq": 35.4132,
    "flag_capoluogo": "NO",
    "pageviews": 4861,
    "provincia": "Torino",
    "regione": "Piemonte"
  },
  {
    "nome_comune": "Chianocco",
    "codice_provincia": "TO",
    "lat": 45.148593,
    "lon": 7.1695443,
    "superficie_kmq": 18.7972,
    "flag_capoluogo": "NO",
    "pageviews": 3029,
    "provincia": "Torino",
    "regione": "Piemonte"
  },
  {
    "nome_comune": "Chiaverano",
    "codice_provincia": "TO",
    "lat": 45.5003948,
    "lon": 7.9023271,
    "superficie_kmq": 11.7809,
    "flag_capoluogo": "NO",
    "pageviews": 3027,
    "provincia": "Torino",
    "regione": "Piemonte"
  },
  {
    "nome_comune": "Chieri",
    "codice_provincia": "TO",
    "lat": 45.0131646,
    "lon": 7.8210215,
    "superficie_kmq": 54.2119,
    "flag_capoluogo": "NO",
    "pageviews": 40354,
    "provincia": "Torino",
    "regione": "Piemonte"
  },
  {
    "nome_comune": "Chiesanuova",
    "codice_provincia": "TO",
    "lat": 45.4174247,
    "lon": 7.6568511,
    "superficie_kmq": 4.2282,
    "flag_capoluogo": "NO",
    "pageviews": 240,
    "provincia": "Torino",
    "regione": "Piemonte"
  },
  {
    "nome_comune": "Chiomonte",
    "codice_provincia": "TO",
    "lat": 45.119667,
    "lon": 6.9840367,
    "superficie_kmq": 26.8478,
    "flag_capoluogo": "NO",
    "pageviews": 9100,
    "provincia": "Torino",
    "regione": "Piemonte"
  },
  {
    "nome_comune": "Chiusa di San Michele",
    "codice_provincia": "TO",
    "lat": 45.1015733,
    "lon": 7.3264647,
    "superficie_kmq": 5.8307,
    "flag_capoluogo": "NO",
    "pageviews": 6029,
    "provincia": "Torino",
    "regione": "Piemonte"
  },
  {
    "nome_comune": "Chivasso",
    "codice_provincia": "TO",
    "lat": 45.190849299999996,
    "lon": 7.8871226,
    "superficie_kmq": 50.8683,
    "flag_capoluogo": "NO",
    "pageviews": 36320,
    "provincia": "Torino",
    "regione": "Piemonte"
  },
  {
    "nome_comune": "Ciconio",
    "codice_provincia": "TO",
    "lat": 45.3303533,
    "lon": 7.7599853,
    "superficie_kmq": 3.0449,
    "flag_capoluogo": "NO",
    "pageviews": 1093,
    "provincia": "Torino",
    "regione": "Piemonte"
  },
  {
    "nome_comune": "Cintano",
    "codice_provincia": "TO",
    "lat": 45.427971,
    "lon": 7.6867646,
    "superficie_kmq": 5.0355,
    "flag_capoluogo": "NO",
    "pageviews": 1906,
    "provincia": "Torino",
    "regione": "Piemonte"
  },
  {
    "nome_comune": "Cinzano",
    "codice_provincia": "TO",
    "lat": 45.093875,
    "lon": 7.9210939,
    "superficie_kmq": 6.1823,
    "flag_capoluogo": "NO",
    "pageviews": 4389,
    "provincia": "Torino",
    "regione": "Piemonte"
  },
  {
    "nome_comune": "Ciriè",
    "codice_provincia": "TO",
    "lat": 45.2317279,
    "lon": 7.6045879,
    "superficie_kmq": 17.843,
    "flag_capoluogo": "NO",
    "pageviews": 213,
    "provincia": "Torino",
    "regione": "Piemonte"
  },
  {
    "nome_comune": "Claviere",
    "codice_provincia": "TO",
    "lat": 44.9385626,
    "lon": 6.7493542,
    "superficie_kmq": 2.6844,
    "flag_capoluogo": "NO",
    "pageviews": 15180,
    "provincia": "Torino",
    "regione": "Piemonte"
  },
  {
    "nome_comune": "Coassolo Torinese",
    "codice_provincia": "TO",
    "lat": 45.3010009,
    "lon": 7.4614939,
    "superficie_kmq": 27.9457,
    "flag_capoluogo": "NO",
    "pageviews": 4646,
    "provincia": "Torino",
    "regione": "Piemonte"
  },
  {
    "nome_comune": "Coazze",
    "codice_provincia": "TO",
    "lat": 45.0514171,
    "lon": 7.2947246,
    "superficie_kmq": 56.0503,
    "flag_capoluogo": "NO",
    "pageviews": 8553,
    "provincia": "Torino",
    "regione": "Piemonte"
  },
  {
    "nome_comune": "Collegno",
    "codice_provincia": "TO",
    "lat": 45.0774023,
    "lon": 7.5691576,
    "superficie_kmq": 18.1874,
    "flag_capoluogo": "NO",
    "pageviews": 22620,
    "provincia": "Torino",
    "regione": "Piemonte"
  },
  {
    "nome_comune": "Colleretto Castelnuovo",
    "codice_provincia": "TO",
    "lat": 45.4214414,
    "lon": 7.6789845,
    "superficie_kmq": 6.3067,
    "flag_capoluogo": "NO",
    "pageviews": 1683,
    "provincia": "Torino",
    "regione": "Piemonte"
  },
  {
    "nome_comune": "Colleretto Giacosa",
    "codice_provincia": "TO",
    "lat": 45.4328712,
    "lon": 7.799995,
    "superficie_kmq": 4.6628,
    "flag_capoluogo": "NO",
    "pageviews": 4114,
    "provincia": "Torino",
    "regione": "Piemonte"
  },
  {
    "nome_comune": "Condove",
    "codice_provincia": "TO",
    "lat": 45.1170113,
    "lon": 7.3105314,
    "superficie_kmq": 70.9524,
    "flag_capoluogo": "NO",
    "pageviews": 6997,
    "provincia": "Torino",
    "regione": "Piemonte"
  },
  {
    "nome_comune": "Corio",
    "codice_provincia": "TO",
    "lat": 45.3127335,
    "lon": 7.532602,
    "superficie_kmq": 41.6073,
    "flag_capoluogo": "NO",
    "pageviews": 8576,
    "provincia": "Torino",
    "regione": "Piemonte"
  },
  {
    "nome_comune": "Cossano Canavese",
    "codice_provincia": "TO",
    "lat": 45.3883116,
    "lon": 7.9934226,
    "superficie_kmq": 3.1156,
    "flag_capoluogo": "NO",
    "pageviews": 1483,
    "provincia": "Torino",
    "regione": "Piemonte"
  },
  {
    "nome_comune": "Cuceglio",
    "codice_provincia": "TO",
    "lat": 45.3587593,
    "lon": 7.814872,
    "superficie_kmq": 7.0072,
    "flag_capoluogo": "NO",
    "pageviews": 2193,
    "provincia": "Torino",
    "regione": "Piemonte"
  },
  {
    "nome_comune": "Cumiana",
    "codice_provincia": "TO",
    "lat": 44.9827474,
    "lon": 7.3741814,
    "superficie_kmq": 60.8053,
    "flag_capoluogo": "NO",
    "pageviews": 11217,
    "provincia": "Torino",
    "regione": "Piemonte"
  },
  {
    "nome_comune": "Cuorgnè",
    "codice_provincia": "TO",
    "lat": 45.3913262,
    "lon": 7.648696,
    "superficie_kmq": 19.1172,
    "flag_capoluogo": "NO",
    "pageviews": 14286,
    "provincia": "Torino",
    "regione": "Piemonte"
  },
  {
    "nome_comune": "Druento",
    "codice_provincia": "TO",
    "lat": 45.1342731,
    "lon": 7.5762577,
    "superficie_kmq": 27.518,
    "flag_capoluogo": "NO",
    "pageviews": 11569,
    "provincia": "Torino",
    "regione": "Piemonte"
  },
  {
    "nome_comune": "Exilles",
    "codice_provincia": "TO",
    "lat": 45.0974883,
    "lon": 6.9296051,
    "superficie_kmq": 46.5827,
    "flag_capoluogo": "NO",
    "pageviews": 9725,
    "provincia": "Torino",
    "regione": "Piemonte"
  },
  {
    "nome_comune": "Favria",
    "codice_provincia": "TO",
    "lat": 45.332876,
    "lon": 7.687937,
    "superficie_kmq": 14.9446,
    "flag_capoluogo": "NO",
    "pageviews": 4428,
    "provincia": "Torino",
    "regione": "Piemonte"
  },
  {
    "nome_comune": "Feletto",
    "codice_provincia": "TO",
    "lat": 45.3054802,
    "lon": 7.7471143,
    "superficie_kmq": 8.0921,
    "flag_capoluogo": "NO",
    "pageviews": 5788,
    "provincia": "Torino",
    "regione": "Piemonte"
  },
  {
    "nome_comune": "Fenestrelle",
    "codice_provincia": "TO",
    "lat": 45.0339532,
    "lon": 7.051734,
    "superficie_kmq": 49.1852,
    "flag_capoluogo": "NO",
    "pageviews": 19901,
    "provincia": "Torino",
    "regione": "Piemonte"
  },
  {
    "nome_comune": "Fiano",
    "codice_provincia": "TO",
    "lat": 45.2181318,
    "lon": 7.519751,
    "superficie_kmq": 11.9079,
    "flag_capoluogo": "NO",
    "pageviews": 4195,
    "provincia": "Torino",
    "regione": "Piemonte"
  },
  {
    "nome_comune": "Fiorano Canavese",
    "codice_provincia": "TO",
    "lat": 45.4675874,
    "lon": 7.8289681,
    "superficie_kmq": 4.4557,
    "flag_capoluogo": "NO",
    "pageviews": 1598,
    "provincia": "Torino",
    "regione": "Piemonte"
  },
  {
    "nome_comune": "Foglizzo",
    "codice_provincia": "TO",
    "lat": 45.2720467,
    "lon": 7.8231524,
    "superficie_kmq": 15.6107,
    "flag_capoluogo": "NO",
    "pageviews": 3311,
    "provincia": "Torino",
    "regione": "Piemonte"
  },
  {
    "nome_comune": "Forno Canavese",
    "codice_provincia": "TO",
    "lat": 45.3467729,
    "lon": 7.5867669,
    "superficie_kmq": 16.5492,
    "flag_capoluogo": "NO",
    "pageviews": 4158,
    "provincia": "Torino",
    "regione": "Piemonte"
  },
  {
    "nome_comune": "Frassinetto",
    "codice_provincia": "TO",
    "lat": 45.4360589,
    "lon": 7.6057321,
    "superficie_kmq": 24.8678,
    "flag_capoluogo": "NO",
    "pageviews": 5103,
    "provincia": "Torino",
    "regione": "Piemonte"
  },
  {
    "nome_comune": "Front",
    "codice_provincia": "TO",
    "lat": 45.2794926,
    "lon": 7.6657259,
    "superficie_kmq": 10.9346,
    "flag_capoluogo": "NO",
    "pageviews": 3124,
    "provincia": "Torino",
    "regione": "Piemonte"
  },
  {
    "nome_comune": "Frossasco",
    "codice_provincia": "TO",
    "lat": 44.9334809,
    "lon": 7.3508656,
    "superficie_kmq": 20.2477,
    "flag_capoluogo": "NO",
    "pageviews": 3961,
    "provincia": "Torino",
    "regione": "Piemonte"
  },
  {
    "nome_comune": "Garzigliana",
    "codice_provincia": "TO",
    "lat": 44.8367675,
    "lon": 7.3747354,
    "superficie_kmq": 7.1974,
    "flag_capoluogo": "NO",
    "pageviews": 1757,
    "provincia": "Torino",
    "regione": "Piemonte"
  },
  {
    "nome_comune": "Gassino Torinese",
    "codice_provincia": "TO",
    "lat": 45.1274618,
    "lon": 7.8246237,
    "superficie_kmq": 20.0507,
    "flag_capoluogo": "NO",
    "pageviews": 6815,
    "provincia": "Torino",
    "regione": "Piemonte"
  },
  {
    "nome_comune": "Germagnano",
    "codice_provincia": "TO",
    "lat": 45.2620584,
    "lon": 7.4666277,
    "superficie_kmq": 14.2223,
    "flag_capoluogo": "NO",
    "pageviews": 3095,
    "provincia": "Torino",
    "regione": "Piemonte"
  },
  {
    "nome_comune": "Giaglione",
    "codice_provincia": "TO",
    "lat": 45.1397024,
    "lon": 7.0141191,
    "superficie_kmq": 33.6589,
    "flag_capoluogo": "NO",
    "pageviews": 4106,
    "provincia": "Torino",
    "regione": "Piemonte"
  },
  {
    "nome_comune": "Giaveno",
    "codice_provincia": "TO",
    "lat": 45.0447344,
    "lon": 7.3530799,
    "superficie_kmq": 71.9214,
    "flag_capoluogo": "NO",
    "pageviews": 24782,
    "provincia": "Torino",
    "regione": "Piemonte"
  },
  {
    "nome_comune": "Givoletto",
    "codice_provincia": "TO",
    "lat": 45.1588163,
    "lon": 7.4968477,
    "superficie_kmq": 13.1063,
    "flag_capoluogo": "NO",
    "pageviews": 4079,
    "provincia": "Torino",
    "regione": "Piemonte"
  },
  {
    "nome_comune": "Gravere",
    "codice_provincia": "TO",
    "lat": 45.1239955,
    "lon": 7.0209034,
    "superficie_kmq": 18.9759,
    "flag_capoluogo": "NO",
    "pageviews": 4114,
    "provincia": "Torino",
    "regione": "Piemonte"
  },
  {
    "nome_comune": "Groscavallo",
    "codice_provincia": "TO",
    "lat": 45.3688981,
    "lon": 7.2823768,
    "superficie_kmq": 92.2074,
    "flag_capoluogo": "NO",
    "pageviews": 6450,
    "provincia": "Torino",
    "regione": "Piemonte"
  },
  {
    "nome_comune": "Grosso",
    "codice_provincia": "TO",
    "lat": 45.2578068,
    "lon": 7.558266,
    "superficie_kmq": 4.3392,
    "flag_capoluogo": "NO",
    "pageviews": 515,
    "provincia": "Torino",
    "regione": "Piemonte"
  },
  {
    "nome_comune": "Grugliasco",
    "codice_provincia": "TO",
    "lat": 45.0619938,
    "lon": 7.5777858,
    "superficie_kmq": 13.0865,
    "flag_capoluogo": "NO",
    "pageviews": 70623,
    "provincia": "Torino",
    "regione": "Piemonte"
  },
  {
    "nome_comune": "Ingria",
    "codice_provincia": "TO",
    "lat": 45.4661534,
    "lon": 7.5708119,
    "superficie_kmq": 15.2309,
    "flag_capoluogo": "NO",
    "pageviews": 238,
    "provincia": "Torino",
    "regione": "Piemonte"
  },
  {
    "nome_comune": "Inverso Pinasca",
    "codice_provincia": "TO",
    "lat": 44.9471112,
    "lon": 7.2159869,
    "superficie_kmq": 8.0552,
    "flag_capoluogo": "NO",
    "pageviews": 1896,
    "provincia": "Torino",
    "regione": "Piemonte"
  },
  {
    "nome_comune": "Isolabella",
    "codice_provincia": "TO",
    "lat": 44.9066201,
    "lon": 7.9093993,
    "superficie_kmq": 4.8314,
    "flag_capoluogo": "NO",
    "pageviews": 83,
    "provincia": "Torino",
    "regione": "Piemonte"
  },
  {
    "nome_comune": "Issiglio",
    "codice_provincia": "TO",
    "lat": 45.4468372,
    "lon": 7.7540952,
    "superficie_kmq": 5.4014,
    "flag_capoluogo": "NO",
    "pageviews": 1900,
    "provincia": "Torino",
    "regione": "Piemonte"
  },
  {
    "nome_comune": "Ivrea",
    "codice_provincia": "TO",
    "lat": 45.4662336,
    "lon": 7.8759117,
    "superficie_kmq": 30.5098,
    "flag_capoluogo": "NO",
    "pageviews": 96868,
    "provincia": "Torino",
    "regione": "Piemonte"
  },
  {
    "nome_comune": "La Cassa",
    "codice_provincia": "TO",
    "lat": 45.181817,
    "lon": 7.5191053,
    "superficie_kmq": 11.8554,
    "flag_capoluogo": "NO",
    "pageviews": 3535,
    "provincia": "Torino",
    "regione": "Piemonte"
  },
  {
    "nome_comune": "La Loggia",
    "codice_provincia": "TO",
    "lat": 44.9566817,
    "lon": 7.6676999,
    "superficie_kmq": 13.0895,
    "flag_capoluogo": "NO",
    "pageviews": 6326,
    "provincia": "Torino",
    "regione": "Piemonte"
  },
  {
    "nome_comune": "Lanzo Torinese",
    "codice_provincia": "TO",
    "lat": 45.2722552,
    "lon": 7.4765958,
    "superficie_kmq": 10.3843,
    "flag_capoluogo": "NO",
    "pageviews": 13236,
    "provincia": "Torino",
    "regione": "Piemonte"
  },
  {
    "nome_comune": "Lauriano",
    "codice_provincia": "TO",
    "lat": 45.1584257,
    "lon": 7.9915852,
    "superficie_kmq": 14.0697,
    "flag_capoluogo": "NO",
    "pageviews": 5693,
    "provincia": "Torino",
    "regione": "Piemonte"
  },
  {
    "nome_comune": "Leini",
    "codice_provincia": "TO",
    "lat": 45.1839595,
    "lon": 7.7149873,
    "superficie_kmq": 31.8759,
    "flag_capoluogo": "NO",
    "pageviews": 13441,
    "provincia": "Torino",
    "regione": "Piemonte"
  },
  {
    "nome_comune": "Lemie",
    "codice_provincia": "TO",
    "lat": 45.2286823,
    "lon": 7.2927537,
    "superficie_kmq": 45.4474,
    "flag_capoluogo": "NO",
    "pageviews": 3465,
    "provincia": "Torino",
    "regione": "Piemonte"
  },
  {
    "nome_comune": "Lessolo",
    "codice_provincia": "TO",
    "lat": 45.4757766,
    "lon": 7.8140443,
    "superficie_kmq": 7.8232,
    "flag_capoluogo": "NO",
    "pageviews": 2610,
    "provincia": "Torino",
    "regione": "Piemonte"
  },
  {
    "nome_comune": "Levone",
    "codice_provincia": "TO",
    "lat": 45.3181626,
    "lon": 7.6059193,
    "superficie_kmq": 5.3962,
    "flag_capoluogo": "NO",
    "pageviews": 2573,
    "provincia": "Torino",
    "regione": "Piemonte"
  },
  {
    "nome_comune": "Locana",
    "codice_provincia": "TO",
    "lat": 45.4169171,
    "lon": 7.4617755,
    "superficie_kmq": 132.2437,
    "flag_capoluogo": "NO",
    "pageviews": 8096,
    "provincia": "Torino",
    "regione": "Piemonte"
  },
  {
    "nome_comune": "Lombardore",
    "codice_provincia": "TO",
    "lat": 45.2356416,
    "lon": 7.7362896,
    "superficie_kmq": 12.6186,
    "flag_capoluogo": "NO",
    "pageviews": 2882,
    "provincia": "Torino",
    "regione": "Piemonte"
  },
  {
    "nome_comune": "Lombriasco",
    "codice_provincia": "TO",
    "lat": 44.8416798,
    "lon": 7.6359489,
    "superficie_kmq": 7.2857,
    "flag_capoluogo": "NO",
    "pageviews": 2108,
    "provincia": "Torino",
    "regione": "Piemonte"
  },
  {
    "nome_comune": "Loranzè",
    "codice_provincia": "TO",
    "lat": 45.4413818,
    "lon": 7.8110524,
    "superficie_kmq": 4.2485,
    "flag_capoluogo": "NO",
    "pageviews": 1473,
    "provincia": "Torino",
    "regione": "Piemonte"
  },
  {
    "nome_comune": "Luserna San Giovanni",
    "codice_provincia": "TO",
    "lat": 44.8144535,
    "lon": 7.2460158,
    "superficie_kmq": 17.6374,
    "flag_capoluogo": "NO",
    "pageviews": 36833,
    "provincia": "Torino",
    "regione": "Piemonte"
  },
  {
    "nome_comune": "Lusernetta",
    "codice_provincia": "TO",
    "lat": 44.8026038,
    "lon": 7.2497624,
    "superficie_kmq": 7.1318,
    "flag_capoluogo": "NO",
    "pageviews": 1760,
    "provincia": "Torino",
    "regione": "Piemonte"
  },
  {
    "nome_comune": "Lusigliè",
    "codice_provincia": "TO",
    "lat": 45.3185725,
    "lon": 7.7664656,
    "superficie_kmq": 5.151,
    "flag_capoluogo": "NO",
    "pageviews": 1715,
    "provincia": "Torino",
    "regione": "Piemonte"
  },
  {
    "nome_comune": "Macello",
    "codice_provincia": "TO",
    "lat": 44.8511813,
    "lon": 7.4008373,
    "superficie_kmq": 14.3349,
    "flag_capoluogo": "NO",
    "pageviews": 263,
    "provincia": "Torino",
    "regione": "Piemonte"
  },
  {
    "nome_comune": "Maglione",
    "codice_provincia": "TO",
    "lat": 45.3476727,
    "lon": 8.0117232,
    "superficie_kmq": 6.3965,
    "flag_capoluogo": "NO",
    "pageviews": 302,
    "provincia": "Torino",
    "regione": "Piemonte"
  },
  {
    "nome_comune": "Marentino",
    "codice_provincia": "TO",
    "lat": 45.0580474,
    "lon": 7.8733109,
    "superficie_kmq": 11.1559,
    "flag_capoluogo": "NO",
    "pageviews": 4051,
    "provincia": "Torino",
    "regione": "Piemonte"
  },
  {
    "nome_comune": "Massello",
    "codice_provincia": "TO",
    "lat": 44.9585084,
    "lon": 7.0570144,
    "superficie_kmq": 37.9355,
    "flag_capoluogo": "NO",
    "pageviews": 123,
    "provincia": "Torino",
    "regione": "Piemonte"
  },
  {
    "nome_comune": "Mathi",
    "codice_provincia": "TO",
    "lat": 45.2567508,
    "lon": 7.5411799,
    "superficie_kmq": 7.213,
    "flag_capoluogo": "NO",
    "pageviews": 5331,
    "provincia": "Torino",
    "regione": "Piemonte"
  },
  {
    "nome_comune": "Mattie",
    "codice_provincia": "TO",
    "lat": 45.1188218,
    "lon": 7.1120177,
    "superficie_kmq": 28.2778,
    "flag_capoluogo": "NO",
    "pageviews": 5157,
    "provincia": "Torino",
    "regione": "Piemonte"
  },
  {
    "nome_comune": "Mazzè",
    "codice_provincia": "TO",
    "lat": 45.2985603,
    "lon": 7.9368307,
    "superficie_kmq": 27.0427,
    "flag_capoluogo": "NO",
    "pageviews": 5594,
    "provincia": "Torino",
    "regione": "Piemonte"
  },
  {
    "nome_comune": "Meana di Susa",
    "codice_provincia": "TO",
    "lat": 45.1210435,
    "lon": 7.0684893,
    "superficie_kmq": 16.5905,
    "flag_capoluogo": "NO",
    "pageviews": 4618,
    "provincia": "Torino",
    "regione": "Piemonte"
  },
  {
    "nome_comune": "Mercenasco",
    "codice_provincia": "TO",
    "lat": 45.3570306,
    "lon": 7.882605,
    "superficie_kmq": 12.7399,
    "flag_capoluogo": "NO",
    "pageviews": 2580,
    "provincia": "Torino",
    "regione": "Piemonte"
  },
  {
    "nome_comune": "Mezzenile",
    "codice_provincia": "TO",
    "lat": 45.2923447,
    "lon": 7.3949146,
    "superficie_kmq": 29.0525,
    "flag_capoluogo": "NO",
    "pageviews": 3921,
    "provincia": "Torino",
    "regione": "Piemonte"
  },
  {
    "nome_comune": "Mombello di Torino",
    "codice_provincia": "TO",
    "lat": 45.0463613,
    "lon": 7.9195538,
    "superficie_kmq": 4.3443,
    "flag_capoluogo": "NO",
    "pageviews": 1466,
    "provincia": "Torino",
    "regione": "Piemonte"
  },
  {
    "nome_comune": "Mompantero",
    "codice_provincia": "TO",
    "lat": 45.1399475,
    "lon": 7.0580018,
    "superficie_kmq": 30.1456,
    "flag_capoluogo": "NO",
    "pageviews": 3370,
    "provincia": "Torino",
    "regione": "Piemonte"
  },
  {
    "nome_comune": "Monastero di Lanzo",
    "codice_provincia": "TO",
    "lat": 45.3014494,
    "lon": 7.4391173,
    "superficie_kmq": 17.5545,
    "flag_capoluogo": "NO",
    "pageviews": 3300,
    "provincia": "Torino",
    "regione": "Piemonte"
  },
  {
    "nome_comune": "Moncalieri",
    "codice_provincia": "TO",
    "lat": 45.0009565,
    "lon": 7.6853163,
    "superficie_kmq": 47.3946,
    "flag_capoluogo": "NO",
    "pageviews": 89490,
    "provincia": "Torino",
    "regione": "Piemonte"
  },
  {
    "nome_comune": "Moncenisio",
    "codice_provincia": "TO",
    "lat": 45.2052427,
    "lon": 6.9835832,
    "superficie_kmq": 4.4607,
    "flag_capoluogo": "NO",
    "pageviews": 1836,
    "provincia": "Torino",
    "regione": "Piemonte"
  },
  {
    "nome_comune": "Montaldo Torinese",
    "codice_provincia": "TO",
    "lat": 45.0663754,
    "lon": 7.8509022,
    "superficie_kmq": 4.7439,
    "flag_capoluogo": "NO",
    "pageviews": 3074,
    "provincia": "Torino",
    "regione": "Piemonte"
  },
  {
    "nome_comune": "Montalenghe",
    "codice_provincia": "TO",
    "lat": 45.3377012,
    "lon": 7.8397746,
    "superficie_kmq": 6.607,
    "flag_capoluogo": "NO",
    "pageviews": 2394,
    "provincia": "Torino",
    "regione": "Piemonte"
  },
  {
    "nome_comune": "Montalto Dora",
    "codice_provincia": "TO",
    "lat": 45.493803,
    "lon": 7.864093,
    "superficie_kmq": 7.398,
    "flag_capoluogo": "NO",
    "pageviews": 4660,
    "provincia": "Torino",
    "regione": "Piemonte"
  },
  {
    "nome_comune": "Montanaro",
    "codice_provincia": "TO",
    "lat": 45.2329277,
    "lon": 7.8528765,
    "superficie_kmq": 20.9776,
    "flag_capoluogo": "NO",
    "pageviews": 5337,
    "provincia": "Torino",
    "regione": "Piemonte"
  },
  {
    "nome_comune": "Monteu da Po",
    "codice_provincia": "TO",
    "lat": 45.1504808,
    "lon": 8.0147719,
    "superficie_kmq": 7.3803,
    "flag_capoluogo": "NO",
    "pageviews": 5662,
    "provincia": "Torino",
    "regione": "Piemonte"
  },
  {
    "nome_comune": "Moriondo Torinese",
    "codice_provincia": "TO",
    "lat": 45.0390345,
    "lon": 7.9440562,
    "superficie_kmq": 6.5533,
    "flag_capoluogo": "NO",
    "pageviews": 2351,
    "provincia": "Torino",
    "regione": "Piemonte"
  },
  {
    "nome_comune": "Nichelino",
    "codice_provincia": "TO",
    "lat": 44.9951033,
    "lon": 7.6475753,
    "superficie_kmq": 20.7664,
    "flag_capoluogo": "NO",
    "pageviews": 21932,
    "provincia": "Torino",
    "regione": "Piemonte"
  },
  {
    "nome_comune": "Noasca",
    "codice_provincia": "TO",
    "lat": 45.4542767,
    "lon": 7.31472,
    "superficie_kmq": 78.2832,
    "flag_capoluogo": "NO",
    "pageviews": 6728,
    "provincia": "Torino",
    "regione": "Piemonte"
  },
  {
    "nome_comune": "Nole",
    "codice_provincia": "TO",
    "lat": 45.2421626,
    "lon": 7.5745341,
    "superficie_kmq": 11.198,
    "flag_capoluogo": "NO",
    "pageviews": 6836,
    "provincia": "Torino",
    "regione": "Piemonte"
  },
  {
    "nome_comune": "Nomaglio",
    "codice_provincia": "TO",
    "lat": 45.5351902,
    "lon": 7.8597546,
    "superficie_kmq": 3.1131,
    "flag_capoluogo": "NO",
    "pageviews": 1649,
    "provincia": "Torino",
    "regione": "Piemonte"
  },
  {
    "nome_comune": "nan",
    "codice_provincia": "TO",
    "lat": 44.9323135,
    "lon": 7.5412404,
    "superficie_kmq": 24.6858,
    "flag_capoluogo": "NO",
    "pageviews": 0,
    "provincia": "Torino",
    "regione": "Piemonte"
  },
  {
    "nome_comune": "Novalesa",
    "codice_provincia": "TO",
    "lat": 45.1875238,
    "lon": 7.0146266,
    "superficie_kmq": 28.7921,
    "flag_capoluogo": "NO",
    "pageviews": 8649,
    "provincia": "Torino",
    "regione": "Piemonte"
  },
  {
    "nome_comune": "Oglianico",
    "codice_provincia": "TO",
    "lat": 45.3426372,
    "lon": 7.692759,
    "superficie_kmq": 6.2768,
    "flag_capoluogo": "NO",
    "pageviews": 2029,
    "provincia": "Torino",
    "regione": "Piemonte"
  },
  {
    "nome_comune": "Orbassano",
    "codice_provincia": "TO",
    "lat": 45.0070492,
    "lon": 7.5369689,
    "superficie_kmq": 22.1491,
    "flag_capoluogo": "NO",
    "pageviews": 20221,
    "provincia": "Torino",
    "regione": "Piemonte"
  },
  {
    "nome_comune": "Orio Canavese",
    "codice_provincia": "TO",
    "lat": 45.3284705,
    "lon": 7.8603204,
    "superficie_kmq": 7.1912,
    "flag_capoluogo": "NO",
    "pageviews": 1225,
    "provincia": "Torino",
    "regione": "Piemonte"
  },
  {
    "nome_comune": "Osasco",
    "codice_provincia": "TO",
    "lat": 44.8494947,
    "lon": 7.3429993,
    "superficie_kmq": 5.6143,
    "flag_capoluogo": "NO",
    "pageviews": 257,
    "provincia": "Torino",
    "regione": "Piemonte"
  },
  {
    "nome_comune": "Osasio",
    "codice_provincia": "TO",
    "lat": 44.8694831,
    "lon": 7.6076093,
    "superficie_kmq": 4.9401,
    "flag_capoluogo": "NO",
    "pageviews": 2051,
    "provincia": "Torino",
    "regione": "Piemonte"
  },
  {
    "nome_comune": "Oulx",
    "codice_provincia": "TO",
    "lat": 45.0312715,
    "lon": 6.8322431,
    "superficie_kmq": 99.5177,
    "flag_capoluogo": "NO",
    "pageviews": 31510,
    "provincia": "Torino",
    "regione": "Piemonte"
  },
  {
    "nome_comune": "Ozegna",
    "codice_provincia": "TO",
    "lat": 45.3489931,
    "lon": 7.7432096,
    "superficie_kmq": 5.4178,
    "flag_capoluogo": "NO",
    "pageviews": 2925,
    "provincia": "Torino",
    "regione": "Piemonte"
  },
  {
    "nome_comune": "Palazzo Canavese",
    "codice_provincia": "TO",
    "lat": 45.4577007,
    "lon": 7.9782036,
    "superficie_kmq": 5.145,
    "flag_capoluogo": "NO",
    "pageviews": 1257,
    "provincia": "Torino",
    "regione": "Piemonte"
  },
  {
    "nome_comune": "Pancalieri",
    "codice_provincia": "TO",
    "lat": 44.8304877,
    "lon": 7.5881886,
    "superficie_kmq": 15.4009,
    "flag_capoluogo": "NO",
    "pageviews": 5634,
    "provincia": "Torino",
    "regione": "Piemonte"
  },
  {
    "nome_comune": "Parella",
    "codice_provincia": "TO",
    "lat": 45.4300035,
    "lon": 7.7909823,
    "superficie_kmq": 2.7322,
    "flag_capoluogo": "NO",
    "pageviews": 1987,
    "provincia": "Torino",
    "regione": "Piemonte"
  },
  {
    "nome_comune": "Pavarolo",
    "codice_provincia": "TO",
    "lat": 45.0686502,
    "lon": 7.835206,
    "superficie_kmq": 4.4638,
    "flag_capoluogo": "NO",
    "pageviews": 4132,
    "provincia": "Torino",
    "regione": "Piemonte"
  },
  {
    "nome_comune": "Pavone Canavese",
    "codice_provincia": "TO",
    "lat": 45.4352456,
    "lon": 7.8539878,
    "superficie_kmq": 11.4805,
    "flag_capoluogo": "NO",
    "pageviews": 3351,
    "provincia": "Torino",
    "regione": "Piemonte"
  },
  {
    "nome_comune": "Pecetto Torinese",
    "codice_provincia": "TO",
    "lat": 45.0185761,
    "lon": 7.7486286,
    "superficie_kmq": 9.2476,
    "flag_capoluogo": "NO",
    "pageviews": 7427,
    "provincia": "Torino",
    "regione": "Piemonte"
  },
  {
    "nome_comune": "Perosa Argentina",
    "codice_provincia": "TO",
    "lat": 44.9581802,
    "lon": 7.1922752,
    "superficie_kmq": 25.9475,
    "flag_capoluogo": "NO",
    "pageviews": 16965,
    "provincia": "Torino",
    "regione": "Piemonte"
  },
  {
    "nome_comune": "Perosa Canavese",
    "codice_provincia": "TO",
    "lat": 45.3971383,
    "lon": 7.8292811,
    "superficie_kmq": 4.6306,
    "flag_capoluogo": "NO",
    "pageviews": 1020,
    "provincia": "Torino",
    "regione": "Piemonte"
  },
  {
    "nome_comune": "Perrero",
    "codice_provincia": "TO",
    "lat": 44.9374383,
    "lon": 7.1152518,
    "superficie_kmq": 63.172,
    "flag_capoluogo": "NO",
    "pageviews": 19452,
    "provincia": "Torino",
    "regione": "Piemonte"
  },
  {
    "nome_comune": "Pertusio",
    "codice_provincia": "TO",
    "lat": 45.3532858,
    "lon": 7.6388871,
    "superficie_kmq": 3.8854,
    "flag_capoluogo": "NO",
    "pageviews": 2398,
    "provincia": "Torino",
    "regione": "Piemonte"
  },
  {
    "nome_comune": "Pessinetto",
    "codice_provincia": "TO",
    "lat": 45.2905289,
    "lon": 7.4028414,
    "superficie_kmq": 5.6202,
    "flag_capoluogo": "NO",
    "pageviews": 4344,
    "provincia": "Torino",
    "regione": "Piemonte"
  },
  {
    "nome_comune": "Pianezza",
    "codice_provincia": "TO",
    "lat": 45.1007066,
    "lon": 7.5465646,
    "superficie_kmq": 16.4082,
    "flag_capoluogo": "NO",
    "pageviews": 9623,
    "provincia": "Torino",
    "regione": "Piemonte"
  },
  {
    "nome_comune": "Pinasca",
    "codice_provincia": "TO",
    "lat": 44.9426379,
    "lon": 7.2277062,
    "superficie_kmq": 34.9661,
    "flag_capoluogo": "NO",
    "pageviews": 3869,
    "provincia": "Torino",
    "regione": "Piemonte"
  },
  {
    "nome_comune": "Pinerolo",
    "codice_provincia": "TO",
    "lat": 44.8873333,
    "lon": 7.3320503,
    "superficie_kmq": 49.9877,
    "flag_capoluogo": "NO",
    "pageviews": 69357,
    "provincia": "Torino",
    "regione": "Piemonte"
  },
  {
    "nome_comune": "Pino Torinese",
    "codice_provincia": "TO",
    "lat": 45.04349,
    "lon": 7.7721855,
    "superficie_kmq": 21.8061,
    "flag_capoluogo": "NO",
    "pageviews": 8399,
    "provincia": "Torino",
    "regione": "Piemonte"
  },
  {
    "nome_comune": "Piobesi Torinese",
    "codice_provincia": "TO",
    "lat": 44.9330906,
    "lon": 7.6119242,
    "superficie_kmq": 19.3538,
    "flag_capoluogo": "NO",
    "pageviews": 4035,
    "provincia": "Torino",
    "regione": "Piemonte"
  },
  {
    "nome_comune": "Piossasco",
    "codice_provincia": "TO",
    "lat": 44.99062,
    "lon": 7.4626508,
    "superficie_kmq": 39.7727,
    "flag_capoluogo": "NO",
    "pageviews": 9958,
    "provincia": "Torino",
    "regione": "Piemonte"
  },
  {
    "nome_comune": "Piscina",
    "codice_provincia": "TO",
    "lat": 44.9194511,
    "lon": 7.425907,
    "superficie_kmq": 9.756,
    "flag_capoluogo": "NO",
    "pageviews": 5910,
    "provincia": "Torino",
    "regione": "Piemonte"
  },
  {
    "nome_comune": "Piverone",
    "codice_provincia": "TO",
    "lat": 45.4475126,
    "lon": 8.0070956,
    "superficie_kmq": 11.0868,
    "flag_capoluogo": "NO",
    "pageviews": 2896,
    "provincia": "Torino",
    "regione": "Piemonte"
  },
  {
    "nome_comune": "Poirino",
    "codice_provincia": "TO",
    "lat": 44.9211226,
    "lon": 7.8436611,
    "superficie_kmq": 75.6908,
    "flag_capoluogo": "NO",
    "pageviews": 9495,
    "provincia": "Torino",
    "regione": "Piemonte"
  },
  {
    "nome_comune": "Pomaretto",
    "codice_provincia": "TO",
    "lat": 44.9550893,
    "lon": 7.1821205,
    "superficie_kmq": 8.5166,
    "flag_capoluogo": "NO",
    "pageviews": 4787,
    "provincia": "Torino",
    "regione": "Piemonte"
  },
  {
    "nome_comune": "Pont Canavese",
    "codice_provincia": "TO",
    "lat": 45.4207259,
    "lon": 7.5937483,
    "superficie_kmq": 18.3676,
    "flag_capoluogo": "NO",
    "pageviews": 9031,
    "provincia": "Torino",
    "regione": "Piemonte"
  },
  {
    "nome_comune": "Porte",
    "codice_provincia": "TO",
    "lat": 44.8876041,
    "lon": 7.2680289,
    "superficie_kmq": 4.4359,
    "flag_capoluogo": "NO",
    "pageviews": 144,
    "provincia": "Torino",
    "regione": "Piemonte"
  },
  {
    "nome_comune": "Pragelato",
    "codice_provincia": "TO",
    "lat": 45.0162815,
    "lon": 6.9423638,
    "superficie_kmq": 89.0846,
    "flag_capoluogo": "NO",
    "pageviews": 20900,
    "provincia": "Torino",
    "regione": "Piemonte"
  },
  {
    "nome_comune": "Prali",
    "codice_provincia": "TO",
    "lat": 44.8892028,
    "lon": 7.0487925,
    "superficie_kmq": 72.6308,
    "flag_capoluogo": "NO",
    "pageviews": 13400,
    "provincia": "Torino",
    "regione": "Piemonte"
  },
  {
    "nome_comune": "Pralormo",
    "codice_provincia": "TO",
    "lat": 44.8613363,
    "lon": 7.9006551,
    "superficie_kmq": 29.9367,
    "flag_capoluogo": "NO",
    "pageviews": 6306,
    "provincia": "Torino",
    "regione": "Piemonte"
  },
  {
    "nome_comune": "Pramollo",
    "codice_provincia": "TO",
    "lat": 44.9044962,
    "lon": 7.2116611,
    "superficie_kmq": 22.5421,
    "flag_capoluogo": "NO",
    "pageviews": 3540,
    "provincia": "Torino",
    "regione": "Piemonte"
  },
  {
    "nome_comune": "Prarostino",
    "codice_provincia": "TO",
    "lat": 44.8657846,
    "lon": 7.2698904,
    "superficie_kmq": 10.9127,
    "flag_capoluogo": "NO",
    "pageviews": 3052,
    "provincia": "Torino",
    "regione": "Piemonte"
  },
  {
    "nome_comune": "Prascorsano",
    "codice_provincia": "TO",
    "lat": 45.3676358,
    "lon": 7.6157409,
    "superficie_kmq": 6.3692,
    "flag_capoluogo": "NO",
    "pageviews": 1744,
    "provincia": "Torino",
    "regione": "Piemonte"
  },
  {
    "nome_comune": "Pratiglione",
    "codice_provincia": "TO",
    "lat": 45.3537235,
    "lon": 7.5961516,
    "superficie_kmq": 8.0238,
    "flag_capoluogo": "NO",
    "pageviews": 4052,
    "provincia": "Torino",
    "regione": "Piemonte"
  },
  {
    "nome_comune": "Quagliuzzo",
    "codice_provincia": "TO",
    "lat": 45.4264676,
    "lon": 7.7818622,
    "superficie_kmq": 1.9468,
    "flag_capoluogo": "NO",
    "pageviews": 1081,
    "provincia": "Torino",
    "regione": "Piemonte"
  },
  {
    "nome_comune": "Quassolo",
    "codice_provincia": "TO",
    "lat": 45.5248927,
    "lon": 7.8326743,
    "superficie_kmq": 3.8872,
    "flag_capoluogo": "NO",
    "pageviews": 1890,
    "provincia": "Torino",
    "regione": "Piemonte"
  },
  {
    "nome_comune": "Quincinetto",
    "codice_provincia": "TO",
    "lat": 45.5609053,
    "lon": 7.8058246,
    "superficie_kmq": 17.6063,
    "flag_capoluogo": "NO",
    "pageviews": 5583,
    "provincia": "Torino",
    "regione": "Piemonte"
  },
  {
    "nome_comune": "Reano",
    "codice_provincia": "TO",
    "lat": 45.0518058,
    "lon": 7.429571,
    "superficie_kmq": 6.9073,
    "flag_capoluogo": "NO",
    "pageviews": 2662,
    "provincia": "Torino",
    "regione": "Piemonte"
  },
  {
    "nome_comune": "Ribordone",
    "codice_provincia": "TO",
    "lat": 45.4315947,
    "lon": 7.5023903,
    "superficie_kmq": 43.5611,
    "flag_capoluogo": "NO",
    "pageviews": 3760,
    "provincia": "Torino",
    "regione": "Piemonte"
  },
  {
    "nome_comune": "Rivalba",
    "codice_provincia": "TO",
    "lat": 45.1187242,
    "lon": 7.8872327,
    "superficie_kmq": 10.7161,
    "flag_capoluogo": "NO",
    "pageviews": 2747,
    "provincia": "Torino",
    "regione": "Piemonte"
  },
  {
    "nome_comune": "Rivalta di Torino",
    "codice_provincia": "TO",
    "lat": 45.0345702,
    "lon": 7.5233376,
    "superficie_kmq": 25.1163,
    "flag_capoluogo": "NO",
    "pageviews": 11558,
    "provincia": "Torino",
    "regione": "Piemonte"
  },
  {
    "nome_comune": "Riva presso Chieri",
    "codice_provincia": "TO",
    "lat": 44.9862982,
    "lon": 7.8689799,
    "superficie_kmq": 35.7344,
    "flag_capoluogo": "NO",
    "pageviews": 5003,
    "provincia": "Torino",
    "regione": "Piemonte"
  },
  {
    "nome_comune": "Rivara",
    "codice_provincia": "TO",
    "lat": 45.3323205,
    "lon": 7.625109,
    "superficie_kmq": 12.454,
    "flag_capoluogo": "NO",
    "pageviews": 3478,
    "provincia": "Torino",
    "regione": "Piemonte"
  },
  {
    "nome_comune": "Rivarolo Canavese",
    "codice_provincia": "TO",
    "lat": 45.3326602,
    "lon": 7.7253461,
    "superficie_kmq": 32.4061,
    "flag_capoluogo": "NO",
    "pageviews": 15946,
    "provincia": "Torino",
    "regione": "Piemonte"
  },
  {
    "nome_comune": "Rivarossa",
    "codice_provincia": "TO",
    "lat": 45.2512937,
    "lon": 7.7171498,
    "superficie_kmq": 10.7585,
    "flag_capoluogo": "NO",
    "pageviews": 2208,
    "provincia": "Torino",
    "regione": "Piemonte"
  },
  {
    "nome_comune": "Rivoli",
    "codice_provincia": "TO",
    "lat": 45.0701331,
    "lon": 7.533828,
    "superficie_kmq": 29.5165,
    "flag_capoluogo": "NO",
    "pageviews": 58477,
    "provincia": "Torino",
    "regione": "Piemonte"
  },
  {
    "nome_comune": "Robassomero",
    "codice_provincia": "TO",
    "lat": 45.1999976,
    "lon": 7.5702295,
    "superficie_kmq": 8.5866,
    "flag_capoluogo": "NO",
    "pageviews": 4078,
    "provincia": "Torino",
    "regione": "Piemonte"
  },
  {
    "nome_comune": "Rocca Canavese",
    "codice_provincia": "TO",
    "lat": 45.3091428,
    "lon": 7.5789708,
    "superficie_kmq": 13.9344,
    "flag_capoluogo": "NO",
    "pageviews": 4160,
    "provincia": "Torino",
    "regione": "Piemonte"
  },
  {
    "nome_comune": "Roletto",
    "codice_provincia": "TO",
    "lat": 44.9251935,
    "lon": 7.3306731,
    "superficie_kmq": 9.7144,
    "flag_capoluogo": "NO",
    "pageviews": 2179,
    "provincia": "Torino",
    "regione": "Piemonte"
  },
  {
    "nome_comune": "Romano Canavese",
    "codice_provincia": "TO",
    "lat": 45.3913153,
    "lon": 7.8678554,
    "superficie_kmq": 11.2427,
    "flag_capoluogo": "NO",
    "pageviews": 9252,
    "provincia": "Torino",
    "regione": "Piemonte"
  },
  {
    "nome_comune": "Ronco Canavese",
    "codice_provincia": "TO",
    "lat": 45.499448,
    "lon": 7.5456181,
    "superficie_kmq": 96.2584,
    "flag_capoluogo": "NO",
    "pageviews": 5641,
    "provincia": "Torino",
    "regione": "Piemonte"
  },
  {
    "nome_comune": "Rondissone",
    "codice_provincia": "TO",
    "lat": 45.2466423,
    "lon": 7.9656188,
    "superficie_kmq": 10.8409,
    "flag_capoluogo": "NO",
    "pageviews": 3369,
    "provincia": "Torino",
    "regione": "Piemonte"
  },
  {
    "nome_comune": "Rorà",
    "codice_provincia": "TO",
    "lat": 44.7926007,
    "lon": 7.1975782,
    "superficie_kmq": 12.5584,
    "flag_capoluogo": "NO",
    "pageviews": 144,
    "provincia": "Torino",
    "regione": "Piemonte"
  },
  {
    "nome_comune": "Roure",
    "codice_provincia": "TO",
    "lat": 45.000997,
    "lon": 7.129124,
    "superficie_kmq": 59.6585,
    "flag_capoluogo": "NO",
    "pageviews": 4943,
    "provincia": "Torino",
    "regione": "Piemonte"
  },
  {
    "nome_comune": "Rosta",
    "codice_provincia": "TO",
    "lat": 45.0713368,
    "lon": 7.4640422,
    "superficie_kmq": 8.8569,
    "flag_capoluogo": "NO",
    "pageviews": 6073,
    "provincia": "Torino",
    "regione": "Piemonte"
  },
  {
    "nome_comune": "Rubiana",
    "codice_provincia": "TO",
    "lat": 45.1391657,
    "lon": 7.3824508,
    "superficie_kmq": 27.0456,
    "flag_capoluogo": "NO",
    "pageviews": 6411,
    "provincia": "Torino",
    "regione": "Piemonte"
  },
  {
    "nome_comune": "Rueglio",
    "codice_provincia": "TO",
    "lat": 45.4678999,
    "lon": 7.7558044,
    "superficie_kmq": 14.9395,
    "flag_capoluogo": "NO",
    "pageviews": 3011,
    "provincia": "Torino",
    "regione": "Piemonte"
  },
  {
    "nome_comune": "Salassa",
    "codice_provincia": "TO",
    "lat": 45.3596256,
    "lon": 7.6893394,
    "superficie_kmq": 5.0629,
    "flag_capoluogo": "NO",
    "pageviews": 2088,
    "provincia": "Torino",
    "regione": "Piemonte"
  },
  {
    "nome_comune": "Salbertrand",
    "codice_provincia": "TO",
    "lat": 45.0723272,
    "lon": 6.8836766,
    "superficie_kmq": 38.4476,
    "flag_capoluogo": "NO",
    "pageviews": 7418,
    "provincia": "Torino",
    "regione": "Piemonte"
  },
  {
    "nome_comune": "Salerano Canavese",
    "codice_provincia": "TO",
    "lat": 45.4564496,
    "lon": 7.8498869,
    "superficie_kmq": 2.1355,
    "flag_capoluogo": "NO",
    "pageviews": 1394,
    "provincia": "Torino",
    "regione": "Piemonte"
  },
  {
    "nome_comune": "Salza di Pinerolo",
    "codice_provincia": "TO",
    "lat": 44.9406925,
    "lon": 7.0530248,
    "superficie_kmq": 16.0352,
    "flag_capoluogo": "NO",
    "pageviews": 2867,
    "provincia": "Torino",
    "regione": "Piemonte"
  },
  {
    "nome_comune": "Samone",
    "codice_provincia": "TO",
    "lat": 45.449327,
    "lon": 7.8457639,
    "superficie_kmq": 2.3781,
    "flag_capoluogo": "NO",
    "pageviews": 219,
    "provincia": "Torino",
    "regione": "Piemonte"
  },
  {
    "nome_comune": "San Benigno Canavese",
    "codice_provincia": "TO",
    "lat": 45.2240048,
    "lon": 7.7826941,
    "superficie_kmq": 22.2443,
    "flag_capoluogo": "NO",
    "pageviews": 5766,
    "provincia": "Torino",
    "regione": "Piemonte"
  },
  {
    "nome_comune": "San Carlo Canavese",
    "codice_provincia": "TO",
    "lat": 45.2481463,
    "lon": 7.6102029,
    "superficie_kmq": 20.8112,
    "flag_capoluogo": "NO",
    "pageviews": 5948,
    "provincia": "Torino",
    "regione": "Piemonte"
  },
  {
    "nome_comune": "San Colombano Belmonte",
    "codice_provincia": "TO",
    "lat": 45.381926,
    "lon": 7.6183219,
    "superficie_kmq": 3.6092,
    "flag_capoluogo": "NO",
    "pageviews": 1474,
    "provincia": "Torino",
    "regione": "Piemonte"
  },
  {
    "nome_comune": "San Didero",
    "codice_provincia": "TO",
    "lat": 45.1351318,
    "lon": 7.2151984,
    "superficie_kmq": 3.2869,
    "flag_capoluogo": "NO",
    "pageviews": 2137,
    "provincia": "Torino",
    "regione": "Piemonte"
  },
  {
    "nome_comune": "San Francesco al Campo",
    "codice_provincia": "TO",
    "lat": 45.2255513,
    "lon": 7.6556645,
    "superficie_kmq": 15.0038,
    "flag_capoluogo": "NO",
    "pageviews": 4598,
    "provincia": "Torino",
    "regione": "Piemonte"
  },
  {
    "nome_comune": "Sangano",
    "codice_provincia": "TO",
    "lat": 45.0262148,
    "lon": 7.4504772,
    "superficie_kmq": 6.8081,
    "flag_capoluogo": "NO",
    "pageviews": 10228,
    "provincia": "Torino",
    "regione": "Piemonte"
  },
  {
    "nome_comune": "San Germano Chisone",
    "codice_provincia": "TO",
    "lat": 44.8986733,
    "lon": 7.2408642,
    "superficie_kmq": 15.8806,
    "flag_capoluogo": "NO",
    "pageviews": 13455,
    "provincia": "Torino",
    "regione": "Piemonte"
  },
  {
    "nome_comune": "San Gillio",
    "codice_provincia": "TO",
    "lat": 45.1420013,
    "lon": 7.5338675,
    "superficie_kmq": 8.5727,
    "flag_capoluogo": "NO",
    "pageviews": 3077,
    "provincia": "Torino",
    "regione": "Piemonte"
  },
  {
    "nome_comune": "San Giorgio Canavese",
    "codice_provincia": "TO",
    "lat": 45.3355763,
    "lon": 7.794164,
    "superficie_kmq": 20.2368,
    "flag_capoluogo": "NO",
    "pageviews": 7093,
    "provincia": "Torino",
    "regione": "Piemonte"
  },
  {
    "nome_comune": "San Giorio di Susa",
    "codice_provincia": "TO",
    "lat": 45.1283968,
    "lon": 7.1775082,
    "superficie_kmq": 19.7443,
    "flag_capoluogo": "NO",
    "pageviews": 6756,
    "provincia": "Torino",
    "regione": "Piemonte"
  },
  {
    "nome_comune": "San Giusto Canavese",
    "codice_provincia": "TO",
    "lat": 45.3123452,
    "lon": 7.808294,
    "superficie_kmq": 9.6905,
    "flag_capoluogo": "NO",
    "pageviews": 4059,
    "provincia": "Torino",
    "regione": "Piemonte"
  },
  {
    "nome_comune": "San Martino Canavese",
    "codice_provincia": "TO",
    "lat": 45.3944869,
    "lon": 7.8183919,
    "superficie_kmq": 9.752,
    "flag_capoluogo": "NO",
    "pageviews": 1898,
    "provincia": "Torino",
    "regione": "Piemonte"
  },
  {
    "nome_comune": "San Maurizio Canavese",
    "codice_provincia": "TO",
    "lat": 45.2189815,
    "lon": 7.6306847,
    "superficie_kmq": 17.22,
    "flag_capoluogo": "NO",
    "pageviews": 7062,
    "provincia": "Torino",
    "regione": "Piemonte"
  },
  {
    "nome_comune": "San Mauro Torinese",
    "codice_provincia": "TO",
    "lat": 45.1030232,
    "lon": 7.7663607,
    "superficie_kmq": 12.6388,
    "flag_capoluogo": "NO",
    "pageviews": 11178,
    "provincia": "Torino",
    "regione": "Piemonte"
  },
  {
    "nome_comune": "San Pietro Val Lemina",
    "codice_provincia": "TO",
    "lat": 44.9073306,
    "lon": 7.3135293,
    "superficie_kmq": 12.2964,
    "flag_capoluogo": "NO",
    "pageviews": 2702,
    "provincia": "Torino",
    "regione": "Piemonte"
  },
  {
    "nome_comune": "San Ponso",
    "codice_provincia": "TO",
    "lat": 45.3508451,
    "lon": 7.6675594,
    "superficie_kmq": 1.9194,
    "flag_capoluogo": "NO",
    "pageviews": 1702,
    "provincia": "Torino",
    "regione": "Piemonte"
  },
  {
    "nome_comune": "San Raffaele Cimena",
    "codice_provincia": "TO",
    "lat": 45.1472202,
    "lon": 7.8487635,
    "superficie_kmq": 11.3369,
    "flag_capoluogo": "NO",
    "pageviews": 4428,
    "provincia": "Torino",
    "regione": "Piemonte"
  },
  {
    "nome_comune": "San Sebastiano da Po",
    "codice_provincia": "TO",
    "lat": 45.1664892,
    "lon": 7.95356,
    "superficie_kmq": 16.7266,
    "flag_capoluogo": "NO",
    "pageviews": 3531,
    "provincia": "Torino",
    "regione": "Piemonte"
  },
  {
    "nome_comune": "San Secondo di Pinerolo",
    "codice_provincia": "TO",
    "lat": 44.8667166,
    "lon": 7.2986813,
    "superficie_kmq": 12.1729,
    "flag_capoluogo": "NO",
    "pageviews": 3713,
    "provincia": "Torino",
    "regione": "Piemonte"
  },
  {
    "nome_comune": "Sant'Ambrogio di Torino",
    "codice_provincia": "TO",
    "lat": 45.0996162,
    "lon": 7.3591937,
    "superficie_kmq": 8.5325,
    "flag_capoluogo": "NO",
    "pageviews": 8977,
    "provincia": "Torino",
    "regione": "Piemonte"
  },
  {
    "nome_comune": "Sant'Antonino di Susa",
    "codice_provincia": "TO",
    "lat": 45.1071794,
    "lon": 7.2735256,
    "superficie_kmq": 9.9452,
    "flag_capoluogo": "NO",
    "pageviews": 4492,
    "provincia": "Torino",
    "regione": "Piemonte"
  },
  {
    "nome_comune": "Santena",
    "codice_provincia": "TO",
    "lat": 44.9488433,
    "lon": 7.7725028,
    "superficie_kmq": 16.4538,
    "flag_capoluogo": "NO",
    "pageviews": 10692,
    "provincia": "Torino",
    "regione": "Piemonte"
  },
  {
    "nome_comune": "Sauze di Cesana",
    "codice_provincia": "TO",
    "lat": 44.9404219,
    "lon": 6.8605526,
    "superficie_kmq": 78.0498,
    "flag_capoluogo": "NO",
    "pageviews": 4488,
    "provincia": "Torino",
    "regione": "Piemonte"
  },
  {
    "nome_comune": "Sauze d'Oulx",
    "codice_provincia": "TO",
    "lat": 45.0280988,
    "lon": 6.8582554,
    "superficie_kmq": 17.5152,
    "flag_capoluogo": "NO",
    "pageviews": 42329,
    "provincia": "Torino",
    "regione": "Piemonte"
  },
  {
    "nome_comune": "Scalenghe",
    "codice_provincia": "TO",
    "lat": 44.8883292,
    "lon": 7.4979651,
    "superficie_kmq": 31.3834,
    "flag_capoluogo": "NO",
    "pageviews": 3264,
    "provincia": "Torino",
    "regione": "Piemonte"
  },
  {
    "nome_comune": "Scarmagno",
    "codice_provincia": "TO",
    "lat": 45.385821,
    "lon": 7.8408965,
    "superficie_kmq": 8.0046,
    "flag_capoluogo": "NO",
    "pageviews": 2534,
    "provincia": "Torino",
    "regione": "Piemonte"
  },
  {
    "nome_comune": "Sciolze",
    "codice_provincia": "TO",
    "lat": 45.0950139,
    "lon": 7.8776455,
    "superficie_kmq": 11.3644,
    "flag_capoluogo": "NO",
    "pageviews": 3421,
    "provincia": "Torino",
    "regione": "Piemonte"
  },
  {
    "nome_comune": "Sestriere",
    "codice_provincia": "TO",
    "lat": 44.9576328,
    "lon": 6.8764939,
    "superficie_kmq": 26.4401,
    "flag_capoluogo": "NO",
    "pageviews": 77152,
    "provincia": "Torino",
    "regione": "Piemonte"
  },
  {
    "nome_comune": "Settimo Rottaro",
    "codice_provincia": "TO",
    "lat": 45.4048986,
    "lon": 7.9922828,
    "superficie_kmq": 6.3192,
    "flag_capoluogo": "NO",
    "pageviews": 6356,
    "provincia": "Torino",
    "regione": "Piemonte"
  },
  {
    "nome_comune": "Settimo Torinese",
    "codice_provincia": "TO",
    "lat": 45.1369502,
    "lon": 7.7712554,
    "superficie_kmq": 31.2707,
    "flag_capoluogo": "NO",
    "pageviews": 22206,
    "provincia": "Torino",
    "regione": "Piemonte"
  },
  {
    "nome_comune": "Settimo Vittone",
    "codice_provincia": "TO",
    "lat": 45.5461989,
    "lon": 7.8343565,
    "superficie_kmq": 23.2521,
    "flag_capoluogo": "NO",
    "pageviews": 5129,
    "provincia": "Torino",
    "regione": "Piemonte"
  },
  {
    "nome_comune": "Sparone",
    "codice_provincia": "TO",
    "lat": 45.4133082,
    "lon": 7.544245,
    "superficie_kmq": 30.0701,
    "flag_capoluogo": "NO",
    "pageviews": 5216,
    "provincia": "Torino",
    "regione": "Piemonte"
  },
  {
    "nome_comune": "Strambinello",
    "codice_provincia": "TO",
    "lat": 45.4233819,
    "lon": 7.7687468,
    "superficie_kmq": 2.132,
    "flag_capoluogo": "NO",
    "pageviews": 1103,
    "provincia": "Torino",
    "regione": "Piemonte"
  },
  {
    "nome_comune": "Strambino",
    "codice_provincia": "TO",
    "lat": 45.3846248,
    "lon": 7.880677,
    "superficie_kmq": 22.5362,
    "flag_capoluogo": "NO",
    "pageviews": 5925,
    "provincia": "Torino",
    "regione": "Piemonte"
  },
  {
    "nome_comune": "Susa",
    "codice_provincia": "TO",
    "lat": 45.1352774,
    "lon": 7.0464163,
    "superficie_kmq": 11.0425,
    "flag_capoluogo": "NO",
    "pageviews": 1557,
    "provincia": "Torino",
    "regione": "Piemonte"
  },
  {
    "nome_comune": "Tavagnasco",
    "codice_provincia": "TO",
    "lat": 45.5431713,
    "lon": 7.8225983,
    "superficie_kmq": 8.6068,
    "flag_capoluogo": "NO",
    "pageviews": 2036,
    "provincia": "Torino",
    "regione": "Piemonte"
  },
  {
    "nome_comune": "Torino",
    "codice_provincia": "TO",
    "lat": 45.0732891,
    "lon": 7.6806958,
    "superficie_kmq": 130.0282,
    "flag_capoluogo": "SI",
    "pageviews": 374569,
    "provincia": "Torino",
    "regione": "Piemonte"
  },
  {
    "nome_comune": "Torrazza Piemonte",
    "codice_provincia": "TO",
    "lat": 45.2151575,
    "lon": 7.9748498,
    "superficie_kmq": 10.1198,
    "flag_capoluogo": "NO",
    "pageviews": 4378,
    "provincia": "Torino",
    "regione": "Piemonte"
  },
  {
    "nome_comune": "Torre Canavese",
    "codice_provincia": "TO",
    "lat": 45.3918129,
    "lon": 7.7605986,
    "superficie_kmq": 5.3765,
    "flag_capoluogo": "NO",
    "pageviews": 2081,
    "provincia": "Torino",
    "regione": "Piemonte"
  },
  {
    "nome_comune": "Torre Pellice",
    "codice_provincia": "TO",
    "lat": 44.8208762,
    "lon": 7.2236356,
    "superficie_kmq": 21.4086,
    "flag_capoluogo": "NO",
    "pageviews": 17790,
    "provincia": "Torino",
    "regione": "Piemonte"
  },
  {
    "nome_comune": "Trana",
    "codice_provincia": "TO",
    "lat": 45.0370807,
    "lon": 7.4173159,
    "superficie_kmq": 16.3859,
    "flag_capoluogo": "NO",
    "pageviews": 7475,
    "provincia": "Torino",
    "regione": "Piemonte"
  },
  {
    "nome_comune": "Traversella",
    "codice_provincia": "TO",
    "lat": 45.5089979,
    "lon": 7.7497482,
    "superficie_kmq": 38.9818,
    "flag_capoluogo": "NO",
    "pageviews": 6343,
    "provincia": "Torino",
    "regione": "Piemonte"
  },
  {
    "nome_comune": "Traves",
    "codice_provincia": "TO",
    "lat": 45.2705658,
    "lon": 7.4297647,
    "superficie_kmq": 10.707,
    "flag_capoluogo": "NO",
    "pageviews": 80,
    "provincia": "Torino",
    "regione": "Piemonte"
  },
  {
    "nome_comune": "Trofarello",
    "codice_provincia": "TO",
    "lat": 44.9859394,
    "lon": 7.7401159,
    "superficie_kmq": 12.255,
    "flag_capoluogo": "NO",
    "pageviews": 10697,
    "provincia": "Torino",
    "regione": "Piemonte"
  },
  {
    "nome_comune": "Usseaux",
    "codice_provincia": "TO",
    "lat": 45.0490316,
    "lon": 7.0279473,
    "superficie_kmq": 38.3679,
    "flag_capoluogo": "NO",
    "pageviews": 32574,
    "provincia": "Torino",
    "regione": "Piemonte"
  },
  {
    "nome_comune": "Usseglio",
    "codice_provincia": "TO",
    "lat": 45.2326695,
    "lon": 7.2172473,
    "superficie_kmq": 98.6094,
    "flag_capoluogo": "NO",
    "pageviews": 13988,
    "provincia": "Torino",
    "regione": "Piemonte"
  },
  {
    "nome_comune": "Vaie",
    "codice_provincia": "TO",
    "lat": 45.1019442,
    "lon": 7.2864963,
    "superficie_kmq": 7.2567,
    "flag_capoluogo": "NO",
    "pageviews": 2699,
    "provincia": "Torino",
    "regione": "Piemonte"
  },
  {
    "nome_comune": "Val della Torre",
    "codice_provincia": "TO",
    "lat": 45.1555681,
    "lon": 7.4494082,
    "superficie_kmq": 36.3071,
    "flag_capoluogo": "NO",
    "pageviews": 5951,
    "provincia": "Torino",
    "regione": "Piemonte"
  },
  {
    "nome_comune": "Valgioie",
    "codice_provincia": "TO",
    "lat": 45.0759732,
    "lon": 7.3399975,
    "superficie_kmq": 9.1885,
    "flag_capoluogo": "NO",
    "pageviews": 6340,
    "provincia": "Torino",
    "regione": "Piemonte"
  },
  {
    "nome_comune": "Vallo Torinese",
    "codice_provincia": "TO",
    "lat": 45.2234604,
    "lon": 7.4992399,
    "superficie_kmq": 6.1546,
    "flag_capoluogo": "NO",
    "pageviews": 2233,
    "provincia": "Torino",
    "regione": "Piemonte"
  },
  {
    "nome_comune": "Valperga",
    "codice_provincia": "TO",
    "lat": 45.369916,
    "lon": 7.656771,
    "superficie_kmq": 11.8564,
    "flag_capoluogo": "NO",
    "pageviews": 198,
    "provincia": "Torino",
    "regione": "Piemonte"
  },
  {
    "nome_comune": "Valprato Soana",
    "codice_provincia": "TO",
    "lat": 45.5223756,
    "lon": 7.5489749,
    "superficie_kmq": 71.8341,
    "flag_capoluogo": "NO",
    "pageviews": 5162,
    "provincia": "Torino",
    "regione": "Piemonte"
  },
  {
    "nome_comune": "Varisella",
    "codice_provincia": "TO",
    "lat": 45.2101015,
    "lon": 7.489424,
    "superficie_kmq": 22.5555,
    "flag_capoluogo": "NO",
    "pageviews": 3032,
    "provincia": "Torino",
    "regione": "Piemonte"
  },
  {
    "nome_comune": "Vauda Canavese",
    "codice_provincia": "TO",
    "lat": 45.2794046,
    "lon": 7.6181679,
    "superficie_kmq": 6.9598,
    "flag_capoluogo": "NO",
    "pageviews": 2339,
    "provincia": "Torino",
    "regione": "Piemonte"
  },
  {
    "nome_comune": "Venaus",
    "codice_provincia": "TO",
    "lat": 45.1547379,
    "lon": 7.0119549,
    "superficie_kmq": 18.9292,
    "flag_capoluogo": "NO",
    "pageviews": 6058,
    "provincia": "Torino",
    "regione": "Piemonte"
  },
  {
    "nome_comune": "Venaria Reale",
    "codice_provincia": "TO",
    "lat": 45.1325369,
    "lon": 7.6315017,
    "superficie_kmq": 20.5679,
    "flag_capoluogo": "NO",
    "pageviews": 58845,
    "provincia": "Torino",
    "regione": "Piemonte"
  },
  {
    "nome_comune": "Verolengo",
    "codice_provincia": "TO",
    "lat": 45.1902431,
    "lon": 7.9699124,
    "superficie_kmq": 29.2622,
    "flag_capoluogo": "NO",
    "pageviews": 4915,
    "provincia": "Torino",
    "regione": "Piemonte"
  },
  {
    "nome_comune": "Verrua Savoia",
    "codice_provincia": "TO",
    "lat": 45.1565984,
    "lon": 8.0931009,
    "superficie_kmq": 32.0709,
    "flag_capoluogo": "NO",
    "pageviews": 5302,
    "provincia": "Torino",
    "regione": "Piemonte"
  },
  {
    "nome_comune": "Vestignè",
    "codice_provincia": "TO",
    "lat": 45.3866525,
    "lon": 7.9538495,
    "superficie_kmq": 11.8257,
    "flag_capoluogo": "NO",
    "pageviews": 2751,
    "provincia": "Torino",
    "regione": "Piemonte"
  },
  {
    "nome_comune": "Vialfrè",
    "codice_provincia": "TO",
    "lat": 45.3808825,
    "lon": 7.8182154,
    "superficie_kmq": 4.6576,
    "flag_capoluogo": "NO",
    "pageviews": 1615,
    "provincia": "Torino",
    "regione": "Piemonte"
  },
  {
    "nome_comune": "Vidracco",
    "codice_provincia": "TO",
    "lat": 45.4303825,
    "lon": 7.7589086,
    "superficie_kmq": 2.9424,
    "flag_capoluogo": "NO",
    "pageviews": 3274,
    "provincia": "Torino",
    "regione": "Piemonte"
  },
  {
    "nome_comune": "Vigone",
    "codice_provincia": "TO",
    "lat": 44.8421351,
    "lon": 7.494561,
    "superficie_kmq": 40.7815,
    "flag_capoluogo": "NO",
    "pageviews": 9099,
    "provincia": "Torino",
    "regione": "Piemonte"
  },
  {
    "nome_comune": "Villafranca Piemonte",
    "codice_provincia": "TO",
    "lat": 44.7810234,
    "lon": 7.5044919,
    "superficie_kmq": 51.2713,
    "flag_capoluogo": "NO",
    "pageviews": 7101,
    "provincia": "Torino",
    "regione": "Piemonte"
  },
  {
    "nome_comune": "Villanova Canavese",
    "codice_provincia": "TO",
    "lat": 45.2428035,
    "lon": 7.5540469,
    "superficie_kmq": 4.2592,
    "flag_capoluogo": "NO",
    "pageviews": 1706,
    "provincia": "Torino",
    "regione": "Piemonte"
  },
  {
    "nome_comune": "Villarbasse",
    "codice_provincia": "TO",
    "lat": 45.0449369,
    "lon": 7.4679776,
    "superficie_kmq": 10.4499,
    "flag_capoluogo": "NO",
    "pageviews": 5928,
    "provincia": "Torino",
    "regione": "Piemonte"
  },
  {
    "nome_comune": "Villar Dora",
    "codice_provincia": "TO",
    "lat": 45.1177944,
    "lon": 7.3838021,
    "superficie_kmq": 5.7354,
    "flag_capoluogo": "NO",
    "pageviews": 3460,
    "provincia": "Torino",
    "regione": "Piemonte"
  },
  {
    "nome_comune": "Villareggia",
    "codice_provincia": "TO",
    "lat": 45.3109562,
    "lon": 7.9784647,
    "superficie_kmq": 11.5731,
    "flag_capoluogo": "NO",
    "pageviews": 2774,
    "provincia": "Torino",
    "regione": "Piemonte"
  },
  {
    "nome_comune": "Villar Focchiardo",
    "codice_provincia": "TO",
    "lat": 45.1096556,
    "lon": 7.2265811,
    "superficie_kmq": 25.6492,
    "flag_capoluogo": "NO",
    "pageviews": 3460,
    "provincia": "Torino",
    "regione": "Piemonte"
  },
  {
    "nome_comune": "Villar Pellice",
    "codice_provincia": "TO",
    "lat": 44.8086259,
    "lon": 7.1583554,
    "superficie_kmq": 60.083,
    "flag_capoluogo": "NO",
    "pageviews": 4792,
    "provincia": "Torino",
    "regione": "Piemonte"
  },
  {
    "nome_comune": "Villar Perosa",
    "codice_provincia": "TO",
    "lat": 44.9202092,
    "lon": 7.2492886,
    "superficie_kmq": 11.3742,
    "flag_capoluogo": "NO",
    "pageviews": 46321,
    "provincia": "Torino",
    "regione": "Piemonte"
  },
  {
    "nome_comune": "Villastellone",
    "codice_provincia": "TO",
    "lat": 44.9215581,
    "lon": 7.7452811,
    "superficie_kmq": 19.6779,
    "flag_capoluogo": "NO",
    "pageviews": 8309,
    "provincia": "Torino",
    "regione": "Piemonte"
  },
  {
    "nome_comune": "Vinovo",
    "codice_provincia": "TO",
    "lat": 44.9487676,
    "lon": 7.6342468,
    "superficie_kmq": 17.6055,
    "flag_capoluogo": "NO",
    "pageviews": 9250,
    "provincia": "Torino",
    "regione": "Piemonte"
  },
  {
    "nome_comune": "Virle Piemonte",
    "codice_provincia": "TO",
    "lat": 44.8660009,
    "lon": 7.5690156,
    "superficie_kmq": 14.2887,
    "flag_capoluogo": "NO",
    "pageviews": 2941,
    "provincia": "Torino",
    "regione": "Piemonte"
  },
  {
    "nome_comune": "Vische",
    "codice_provincia": "TO",
    "lat": 45.3332672,
    "lon": 7.9508054,
    "superficie_kmq": 17.2094,
    "flag_capoluogo": "NO",
    "pageviews": 2699,
    "provincia": "Torino",
    "regione": "Piemonte"
  },
  {
    "nome_comune": "Vistrorio",
    "codice_provincia": "TO",
    "lat": 45.4410792,
    "lon": 7.7693372,
    "superficie_kmq": 4.8076,
    "flag_capoluogo": "NO",
    "pageviews": 1991,
    "provincia": "Torino",
    "regione": "Piemonte"
  },
  {
    "nome_comune": "Viù",
    "codice_provincia": "TO",
    "lat": 45.2389483,
    "lon": 7.3764677,
    "superficie_kmq": 84.2413,
    "flag_capoluogo": "NO",
    "pageviews": 11715,
    "provincia": "Torino",
    "regione": "Piemonte"
  },
  {
    "nome_comune": "Volpiano",
    "codice_provincia": "TO",
    "lat": 45.2019855,
    "lon": 7.7756018,
    "superficie_kmq": 32.489,
    "flag_capoluogo": "NO",
    "pageviews": 13132,
    "provincia": "Torino",
    "regione": "Piemonte"
  },
  {
    "nome_comune": "Volvera",
    "codice_provincia": "TO",
    "lat": 44.9550567,
    "lon": 7.5123717,
    "superficie_kmq": 21.0411,
    "flag_capoluogo": "NO",
    "pageviews": 6040,
    "provincia": "Torino",
    "regione": "Piemonte"
  },
  {
    "nome_comune": "Mappano",
    "codice_provincia": "TO",
    "lat": 45.1477232,
    "lon": 7.7062633,
    "superficie_kmq": 9.7795,
    "flag_capoluogo": "NO",
    "pageviews": 11067,
    "provincia": "Torino",
    "regione": "Piemonte"
  },
  {
    "nome_comune": "Val di Chy",
    "codice_provincia": "TO",
    "lat": 45.460204,
    "lon": 7.7769592,
    "superficie_kmq": 13.8081,
    "flag_capoluogo": "NO",
    "pageviews": 5628,
    "provincia": "Torino",
    "regione": "Piemonte"
  },
  {
    "nome_comune": "Valchiusa",
    "codice_provincia": "TO",
    "lat": 45.4943236,
    "lon": 7.7794356,
    "superficie_kmq": 50.0775,
    "flag_capoluogo": "NO",
    "pageviews": 431,
    "provincia": "Torino",
    "regione": "Piemonte"
  },
  {
    "nome_comune": "Alagna Valsesia",
    "codice_provincia": "VC",
    "lat": 45.8533433,
    "lon": 7.9380903,
    "superficie_kmq": 133.8267,
    "flag_capoluogo": "NO",
    "pageviews": 51549,
    "provincia": "Vercelli",
    "regione": "Piemonte"
  },
  {
    "nome_comune": "Albano Vercellese",
    "codice_provincia": "VC",
    "lat": 45.4251777,
    "lon": 8.3804928,
    "superficie_kmq": 13.9237,
    "flag_capoluogo": "NO",
    "pageviews": 1687,
    "provincia": "Vercelli",
    "regione": "Piemonte"
  },
  {
    "nome_comune": "Alice Castello",
    "codice_provincia": "VC",
    "lat": 45.3665256,
    "lon": 8.074805,
    "superficie_kmq": 24.5687,
    "flag_capoluogo": "NO",
    "pageviews": 3780,
    "provincia": "Vercelli",
    "regione": "Piemonte"
  },
  {
    "nome_comune": "Arborio",
    "codice_provincia": "VC",
    "lat": 45.4961087,
    "lon": 8.3890054,
    "superficie_kmq": 22.9725,
    "flag_capoluogo": "NO",
    "pageviews": 3265,
    "provincia": "Vercelli",
    "regione": "Piemonte"
  },
  {
    "nome_comune": "Asigliano Vercellese",
    "codice_provincia": "VC",
    "lat": 45.2612274,
    "lon": 8.4062038,
    "superficie_kmq": 26.3671,
    "flag_capoluogo": "NO",
    "pageviews": 2936,
    "provincia": "Vercelli",
    "regione": "Piemonte"
  },
  {
    "nome_comune": "Balmuccia",
    "codice_provincia": "VC",
    "lat": 45.8184287,
    "lon": 8.1381009,
    "superficie_kmq": 9.6814,
    "flag_capoluogo": "NO",
    "pageviews": 2256,
    "provincia": "Vercelli",
    "regione": "Piemonte"
  },
  {
    "nome_comune": "Balocco",
    "codice_provincia": "VC",
    "lat": 45.4555733,
    "lon": 8.2810247,
    "superficie_kmq": 16.7051,
    "flag_capoluogo": "NO",
    "pageviews": 881,
    "provincia": "Vercelli",
    "regione": "Piemonte"
  },
  {
    "nome_comune": "Bianzè",
    "codice_provincia": "VC",
    "lat": 45.3073896,
    "lon": 8.1200343,
    "superficie_kmq": 41.9853,
    "flag_capoluogo": "NO",
    "pageviews": 2424,
    "provincia": "Vercelli",
    "regione": "Piemonte"
  },
  {
    "nome_comune": "Boccioleto",
    "codice_provincia": "VC",
    "lat": 45.8299673,
    "lon": 8.1132939,
    "superficie_kmq": 33.6004,
    "flag_capoluogo": "NO",
    "pageviews": 3282,
    "provincia": "Vercelli",
    "regione": "Piemonte"
  },
  {
    "nome_comune": "Borgo d'Ale",
    "codice_provincia": "VC",
    "lat": 45.3500173,
    "lon": 8.0533733,
    "superficie_kmq": 39.6074,
    "flag_capoluogo": "NO",
    "pageviews": 4917,
    "provincia": "Vercelli",
    "regione": "Piemonte"
  },
  {
    "nome_comune": "Borgosesia",
    "codice_provincia": "VC",
    "lat": 45.7169175,
    "lon": 8.2763563,
    "superficie_kmq": 41.1322,
    "flag_capoluogo": "NO",
    "pageviews": 35192,
    "provincia": "Vercelli",
    "regione": "Piemonte"
  },
  {
    "nome_comune": "Borgo Vercelli",
    "codice_provincia": "VC",
    "lat": 45.3571343,
    "lon": 8.4664437,
    "superficie_kmq": 19.3646,
    "flag_capoluogo": "NO",
    "pageviews": 3694,
    "provincia": "Vercelli",
    "regione": "Piemonte"
  },
  {
    "nome_comune": "Buronzo",
    "codice_provincia": "VC",
    "lat": 45.4820959,
    "lon": 8.2682816,
    "superficie_kmq": 25.0583,
    "flag_capoluogo": "NO",
    "pageviews": 2712,
    "provincia": "Vercelli",
    "regione": "Piemonte"
  },
  {
    "nome_comune": "Campertogno",
    "codice_provincia": "VC",
    "lat": 45.7992405,
    "lon": 8.0319955,
    "superficie_kmq": 34.5229,
    "flag_capoluogo": "NO",
    "pageviews": 5850,
    "provincia": "Vercelli",
    "regione": "Piemonte"
  },
  {
    "nome_comune": "Carcoforo",
    "codice_provincia": "VC",
    "lat": 45.9095077,
    "lon": 8.0501304,
    "superficie_kmq": 22.7034,
    "flag_capoluogo": "NO",
    "pageviews": 9688,
    "provincia": "Vercelli",
    "regione": "Piemonte"
  },
  {
    "nome_comune": "Caresana",
    "codice_provincia": "VC",
    "lat": 45.2210317,
    "lon": 8.5065028,
    "superficie_kmq": 23.8614,
    "flag_capoluogo": "NO",
    "pageviews": 5758,
    "provincia": "Vercelli",
    "regione": "Piemonte"
  },
  {
    "nome_comune": "Caresanablot",
    "codice_provincia": "VC",
    "lat": 45.3546894,
    "lon": 8.39508,
    "superficie_kmq": 10.7619,
    "flag_capoluogo": "NO",
    "pageviews": 5367,
    "provincia": "Vercelli",
    "regione": "Piemonte"
  },
  {
    "nome_comune": "Carisio",
    "codice_provincia": "VC",
    "lat": 45.4085899,
    "lon": 8.1986488,
    "superficie_kmq": 29.7352,
    "flag_capoluogo": "NO",
    "pageviews": 4760,
    "provincia": "Vercelli",
    "regione": "Piemonte"
  },
  {
    "nome_comune": "Casanova Elvo",
    "codice_provincia": "VC",
    "lat": 45.3995512,
    "lon": 8.2932972,
    "superficie_kmq": 16.322,
    "flag_capoluogo": "NO",
    "pageviews": 1360,
    "provincia": "Vercelli",
    "regione": "Piemonte"
  },
  {
    "nome_comune": "San Giacomo Vercellese",
    "codice_provincia": "VC",
    "lat": 45.4973587,
    "lon": 8.3254526,
    "superficie_kmq": 9.6221,
    "flag_capoluogo": "NO",
    "pageviews": 1322,
    "provincia": "Vercelli",
    "regione": "Piemonte"
  },
  {
    "nome_comune": "Cervatto",
    "codice_provincia": "VC",
    "lat": 45.8831907,
    "lon": 8.1619161,
    "superficie_kmq": 9.7564,
    "flag_capoluogo": "NO",
    "pageviews": 3828,
    "provincia": "Vercelli",
    "regione": "Piemonte"
  },
  {
    "nome_comune": "Cigliano",
    "codice_provincia": "VC",
    "lat": 45.3095741,
    "lon": 8.0215075,
    "superficie_kmq": 25.4344,
    "flag_capoluogo": "NO",
    "pageviews": 9925,
    "provincia": "Vercelli",
    "regione": "Piemonte"
  },
  {
    "nome_comune": "Civiasco",
    "codice_provincia": "VC",
    "lat": 45.8067941,
    "lon": 8.292929,
    "superficie_kmq": 7.4153,
    "flag_capoluogo": "NO",
    "pageviews": 4546,
    "provincia": "Vercelli",
    "regione": "Piemonte"
  },
  {
    "nome_comune": "Collobiano",
    "codice_provincia": "VC",
    "lat": 45.3970812,
    "lon": 8.3485733,
    "superficie_kmq": 8.9052,
    "flag_capoluogo": "NO",
    "pageviews": 1266,
    "provincia": "Vercelli",
    "regione": "Piemonte"
  },
  {
    "nome_comune": "Costanzana",
    "codice_provincia": "VC",
    "lat": 45.2362016,
    "lon": 8.370048,
    "superficie_kmq": 20.594,
    "flag_capoluogo": "NO",
    "pageviews": 1272,
    "provincia": "Vercelli",
    "regione": "Piemonte"
  },
  {
    "nome_comune": "Cravagliana",
    "codice_provincia": "VC",
    "lat": 45.847224,
    "lon": 8.2010621,
    "superficie_kmq": 34.8122,
    "flag_capoluogo": "NO",
    "pageviews": 2898,
    "provincia": "Vercelli",
    "regione": "Piemonte"
  },
  {
    "nome_comune": "Crescentino",
    "codice_provincia": "VC",
    "lat": 45.1922243,
    "lon": 8.1025205,
    "superficie_kmq": 47.8762,
    "flag_capoluogo": "NO",
    "pageviews": 9863,
    "provincia": "Vercelli",
    "regione": "Piemonte"
  },
  {
    "nome_comune": "Crova",
    "codice_provincia": "VC",
    "lat": 45.3300515,
    "lon": 8.211956,
    "superficie_kmq": 14.0401,
    "flag_capoluogo": "NO",
    "pageviews": 1115,
    "provincia": "Vercelli",
    "regione": "Piemonte"
  },
  {
    "nome_comune": "Desana",
    "codice_provincia": "VC",
    "lat": 45.2686726,
    "lon": 8.3576894,
    "superficie_kmq": 16.726,
    "flag_capoluogo": "NO",
    "pageviews": 1829,
    "provincia": "Vercelli",
    "regione": "Piemonte"
  },
  {
    "nome_comune": "Fobello",
    "codice_provincia": "VC",
    "lat": 45.8895243,
    "lon": 8.1589386,
    "superficie_kmq": 28.2579,
    "flag_capoluogo": "NO",
    "pageviews": 11819,
    "provincia": "Vercelli",
    "regione": "Piemonte"
  },
  {
    "nome_comune": "Fontanetto Po",
    "codice_provincia": "VC",
    "lat": 45.1934858,
    "lon": 8.19161,
    "superficie_kmq": 23.2743,
    "flag_capoluogo": "NO",
    "pageviews": 3816,
    "provincia": "Vercelli",
    "regione": "Piemonte"
  },
  {
    "nome_comune": "Formigliana",
    "codice_provincia": "VC",
    "lat": 45.4285834,
    "lon": 8.2934452,
    "superficie_kmq": 16.8996,
    "flag_capoluogo": "NO",
    "pageviews": 1147,
    "provincia": "Vercelli",
    "regione": "Piemonte"
  },
  {
    "nome_comune": "Gattinara",
    "codice_provincia": "VC",
    "lat": 45.6179229,
    "lon": 8.3707626,
    "superficie_kmq": 33.7087,
    "flag_capoluogo": "NO",
    "pageviews": 27136,
    "provincia": "Vercelli",
    "regione": "Piemonte"
  },
  {
    "nome_comune": "Ghislarengo",
    "codice_provincia": "VC",
    "lat": 45.5293119,
    "lon": 8.3844347,
    "superficie_kmq": 12.6316,
    "flag_capoluogo": "NO",
    "pageviews": 1636,
    "provincia": "Vercelli",
    "regione": "Piemonte"
  },
  {
    "nome_comune": "Greggio",
    "codice_provincia": "VC",
    "lat": 45.4517299,
    "lon": 8.3824334,
    "superficie_kmq": 12.0095,
    "flag_capoluogo": "NO",
    "pageviews": 448,
    "provincia": "Vercelli",
    "regione": "Piemonte"
  },
  {
    "nome_comune": "Guardabosone",
    "codice_provincia": "VC",
    "lat": 45.7017497,
    "lon": 8.2504035,
    "superficie_kmq": 6.2755,
    "flag_capoluogo": "NO",
    "pageviews": 2499,
    "provincia": "Vercelli",
    "regione": "Piemonte"
  },
  {
    "nome_comune": "Lamporo",
    "codice_provincia": "VC",
    "lat": 45.2300239,
    "lon": 8.0973859,
    "superficie_kmq": 9.8583,
    "flag_capoluogo": "NO",
    "pageviews": 1562,
    "provincia": "Vercelli",
    "regione": "Piemonte"
  },
  {
    "nome_comune": "Lenta",
    "codice_provincia": "VC",
    "lat": 45.5555768,
    "lon": 8.3846004,
    "superficie_kmq": 18.9963,
    "flag_capoluogo": "NO",
    "pageviews": 4716,
    "provincia": "Vercelli",
    "regione": "Piemonte"
  },
  {
    "nome_comune": "Lignana",
    "codice_provincia": "VC",
    "lat": 45.2853163,
    "lon": 8.3460624,
    "superficie_kmq": 22.2939,
    "flag_capoluogo": "NO",
    "pageviews": 1385,
    "provincia": "Vercelli",
    "regione": "Piemonte"
  },
  {
    "nome_comune": "Livorno Ferraris",
    "codice_provincia": "VC",
    "lat": 45.2816599,
    "lon": 8.0820345,
    "superficie_kmq": 58.0077,
    "flag_capoluogo": "NO",
    "pageviews": 10525,
    "provincia": "Vercelli",
    "regione": "Piemonte"
  },
  {
    "nome_comune": "Lozzolo",
    "codice_provincia": "VC",
    "lat": 45.6221459,
    "lon": 8.3220233,
    "superficie_kmq": 6.7051,
    "flag_capoluogo": "NO",
    "pageviews": 2410,
    "provincia": "Vercelli",
    "regione": "Piemonte"
  },
  {
    "nome_comune": "Mollia",
    "codice_provincia": "VC",
    "lat": 45.8152849,
    "lon": 8.0310091,
    "superficie_kmq": 13.547,
    "flag_capoluogo": "NO",
    "pageviews": 2744,
    "provincia": "Vercelli",
    "regione": "Piemonte"
  },
  {
    "nome_comune": "Moncrivello",
    "codice_provincia": "VC",
    "lat": 45.3312414,
    "lon": 7.9958681,
    "superficie_kmq": 19.8658,
    "flag_capoluogo": "NO",
    "pageviews": 4472,
    "provincia": "Vercelli",
    "regione": "Piemonte"
  },
  {
    "nome_comune": "Motta de' Conti",
    "codice_provincia": "VC",
    "lat": 45.1930881,
    "lon": 8.5203608,
    "superficie_kmq": 11.4923,
    "flag_capoluogo": "NO",
    "pageviews": 2194,
    "provincia": "Vercelli",
    "regione": "Piemonte"
  },
  {
    "nome_comune": "Olcenengo",
    "codice_provincia": "VC",
    "lat": 45.3635894,
    "lon": 8.3113958,
    "superficie_kmq": 16.4029,
    "flag_capoluogo": "NO",
    "pageviews": 4323,
    "provincia": "Vercelli",
    "regione": "Piemonte"
  },
  {
    "nome_comune": "Oldenico",
    "codice_provincia": "VC",
    "lat": 45.4023734,
    "lon": 8.3826833,
    "superficie_kmq": 6.7187,
    "flag_capoluogo": "NO",
    "pageviews": 1165,
    "provincia": "Vercelli",
    "regione": "Piemonte"
  },
  {
    "nome_comune": "Palazzolo Vercellese",
    "codice_provincia": "VC",
    "lat": 45.1844798,
    "lon": 8.2328541,
    "superficie_kmq": 14.3626,
    "flag_capoluogo": "NO",
    "pageviews": 2887,
    "provincia": "Vercelli",
    "regione": "Piemonte"
  },
  {
    "nome_comune": "Pertengo",
    "codice_provincia": "VC",
    "lat": 45.2356218,
    "lon": 8.417631,
    "superficie_kmq": 8.5179,
    "flag_capoluogo": "NO",
    "pageviews": 918,
    "provincia": "Vercelli",
    "regione": "Piemonte"
  },
  {
    "nome_comune": "Pezzana",
    "codice_provincia": "VC",
    "lat": 45.262167,
    "lon": 8.4841787,
    "superficie_kmq": 17.2402,
    "flag_capoluogo": "NO",
    "pageviews": 8367,
    "provincia": "Vercelli",
    "regione": "Piemonte"
  },
  {
    "nome_comune": "Pila",
    "codice_provincia": "VC",
    "lat": 45.7702168,
    "lon": 8.0808508,
    "superficie_kmq": 9.0284,
    "flag_capoluogo": "NO",
    "pageviews": 1669,
    "provincia": "Vercelli",
    "regione": "Piemonte"
  },
  {
    "nome_comune": "Piode",
    "codice_provincia": "VC",
    "lat": 45.7697761,
    "lon": 8.0527669,
    "superficie_kmq": 13.1165,
    "flag_capoluogo": "NO",
    "pageviews": 3343,
    "provincia": "Vercelli",
    "regione": "Piemonte"
  },
  {
    "nome_comune": "Postua",
    "codice_provincia": "VC",
    "lat": 45.7142284,
    "lon": 8.2314964,
    "superficie_kmq": 16.1718,
    "flag_capoluogo": "NO",
    "pageviews": 2436,
    "provincia": "Vercelli",
    "regione": "Piemonte"
  },
  {
    "nome_comune": "Prarolo",
    "codice_provincia": "VC",
    "lat": 45.282162,
    "lon": 8.4792928,
    "superficie_kmq": 11.6908,
    "flag_capoluogo": "NO",
    "pageviews": 1721,
    "provincia": "Vercelli",
    "regione": "Piemonte"
  },
  {
    "nome_comune": "Quarona",
    "codice_provincia": "VC",
    "lat": 45.7598673,
    "lon": 8.2654611,
    "superficie_kmq": 16.4261,
    "flag_capoluogo": "NO",
    "pageviews": 13395,
    "provincia": "Vercelli",
    "regione": "Piemonte"
  },
  {
    "nome_comune": "Quinto Vercellese",
    "codice_provincia": "VC",
    "lat": 45.3804772,
    "lon": 8.3621678,
    "superficie_kmq": 10.9581,
    "flag_capoluogo": "NO",
    "pageviews": 1295,
    "provincia": "Vercelli",
    "regione": "Piemonte"
  },
  {
    "nome_comune": "Rassa",
    "codice_provincia": "VC",
    "lat": 45.7691927,
    "lon": 8.0151122,
    "superficie_kmq": 43.8761,
    "flag_capoluogo": "NO",
    "pageviews": 8112,
    "provincia": "Vercelli",
    "regione": "Piemonte"
  },
  {
    "nome_comune": "Rimella",
    "codice_provincia": "VC",
    "lat": 45.908262,
    "lon": 8.1819034,
    "superficie_kmq": 25.9965,
    "flag_capoluogo": "NO",
    "pageviews": 5074,
    "provincia": "Vercelli",
    "regione": "Piemonte"
  },
  {
    "nome_comune": "Rive",
    "codice_provincia": "VC",
    "lat": 45.2126066,
    "lon": 8.418307,
    "superficie_kmq": 9.4023,
    "flag_capoluogo": "NO",
    "pageviews": 1782,
    "provincia": "Vercelli",
    "regione": "Piemonte"
  },
  {
    "nome_comune": "Roasio",
    "codice_provincia": "VC",
    "lat": 45.6087028,
    "lon": 8.288956,
    "superficie_kmq": 27.833,
    "flag_capoluogo": "NO",
    "pageviews": 3230,
    "provincia": "Vercelli",
    "regione": "Piemonte"
  },
  {
    "nome_comune": "Ronsecco",
    "codice_provincia": "VC",
    "lat": 45.2536696,
    "lon": 8.2777377,
    "superficie_kmq": 24.3399,
    "flag_capoluogo": "NO",
    "pageviews": 1691,
    "provincia": "Vercelli",
    "regione": "Piemonte"
  },
  {
    "nome_comune": "Rossa",
    "codice_provincia": "VC",
    "lat": 45.8335536,
    "lon": 8.1256335,
    "superficie_kmq": 12.0034,
    "flag_capoluogo": "NO",
    "pageviews": 280,
    "provincia": "Vercelli",
    "regione": "Piemonte"
  },
  {
    "nome_comune": "Rovasenda",
    "codice_provincia": "VC",
    "lat": 45.5367138,
    "lon": 8.3136841,
    "superficie_kmq": 29.332,
    "flag_capoluogo": "NO",
    "pageviews": 3261,
    "provincia": "Vercelli",
    "regione": "Piemonte"
  },
  {
    "nome_comune": "Salasco",
    "codice_provincia": "VC",
    "lat": 45.3253311,
    "lon": 8.2636722,
    "superficie_kmq": 12.0691,
    "flag_capoluogo": "NO",
    "pageviews": 1277,
    "provincia": "Vercelli",
    "regione": "Piemonte"
  },
  {
    "nome_comune": "Sali Vercellese",
    "codice_provincia": "VC",
    "lat": 45.3093805,
    "lon": 8.3297391,
    "superficie_kmq": 8.8992,
    "flag_capoluogo": "NO",
    "pageviews": 1005,
    "provincia": "Vercelli",
    "regione": "Piemonte"
  },
  {
    "nome_comune": "Saluggia",
    "codice_provincia": "VC",
    "lat": 45.2358678,
    "lon": 8.0112083,
    "superficie_kmq": 31.9311,
    "flag_capoluogo": "NO",
    "pageviews": 8127,
    "provincia": "Vercelli",
    "regione": "Piemonte"
  },
  {
    "nome_comune": "San Germano Vercellese",
    "codice_provincia": "VC",
    "lat": 45.3502903,
    "lon": 8.2510737,
    "superficie_kmq": 30.6976,
    "flag_capoluogo": "NO",
    "pageviews": 2862,
    "provincia": "Vercelli",
    "regione": "Piemonte"
  },
  {
    "nome_comune": "Santhià",
    "codice_provincia": "VC",
    "lat": 45.3669515,
    "lon": 8.17434,
    "superficie_kmq": 53.334,
    "flag_capoluogo": "NO",
    "pageviews": 19895,
    "provincia": "Vercelli",
    "regione": "Piemonte"
  },
  {
    "nome_comune": "Scopa",
    "codice_provincia": "VC",
    "lat": 45.7917247,
    "lon": 8.1129765,
    "superficie_kmq": 22.473,
    "flag_capoluogo": "NO",
    "pageviews": 885,
    "provincia": "Vercelli",
    "regione": "Piemonte"
  },
  {
    "nome_comune": "Scopello",
    "codice_provincia": "VC",
    "lat": 45.7736558,
    "lon": 8.0948674,
    "superficie_kmq": 18.2342,
    "flag_capoluogo": "NO",
    "pageviews": 11647,
    "provincia": "Vercelli",
    "regione": "Piemonte"
  },
  {
    "nome_comune": "Serravalle Sesia",
    "codice_provincia": "VC",
    "lat": 45.6861532,
    "lon": 8.3114647,
    "superficie_kmq": 20.6115,
    "flag_capoluogo": "NO",
    "pageviews": 5662,
    "provincia": "Vercelli",
    "regione": "Piemonte"
  },
  {
    "nome_comune": "Stroppiana",
    "codice_provincia": "VC",
    "lat": 45.2314128,
    "lon": 8.4533186,
    "superficie_kmq": 18.5022,
    "flag_capoluogo": "NO",
    "pageviews": 2368,
    "provincia": "Vercelli",
    "regione": "Piemonte"
  },
  {
    "nome_comune": "Tricerro",
    "codice_provincia": "VC",
    "lat": 45.233853,
    "lon": 8.3250521,
    "superficie_kmq": 12.1636,
    "flag_capoluogo": "NO",
    "pageviews": 1357,
    "provincia": "Vercelli",
    "regione": "Piemonte"
  },
  {
    "nome_comune": "Trino",
    "codice_provincia": "VC",
    "lat": 45.194166,
    "lon": 8.2968829,
    "superficie_kmq": 70.4394,
    "flag_capoluogo": "NO",
    "pageviews": 18470,
    "provincia": "Vercelli",
    "regione": "Piemonte"
  },
  {
    "nome_comune": "Tronzano Vercellese",
    "codice_provincia": "VC",
    "lat": 45.3427197,
    "lon": 8.1745758,
    "superficie_kmq": 44.7473,
    "flag_capoluogo": "NO",
    "pageviews": 3715,
    "provincia": "Vercelli",
    "regione": "Piemonte"
  },
  {
    "nome_comune": "Valduggia",
    "codice_provincia": "VC",
    "lat": 45.7263817,
    "lon": 8.3278468,
    "superficie_kmq": 28.1124,
    "flag_capoluogo": "NO",
    "pageviews": 5486,
    "provincia": "Vercelli",
    "regione": "Piemonte"
  },
  {
    "nome_comune": "Varallo",
    "codice_provincia": "VC",
    "lat": 45.8139621,
    "lon": 8.2561968,
    "superficie_kmq": 102.9418,
    "flag_capoluogo": "NO",
    "pageviews": 28752,
    "provincia": "Vercelli",
    "regione": "Piemonte"
  },
  {
    "nome_comune": "Vercelli",
    "codice_provincia": "VC",
    "lat": 45.3239845,
    "lon": 8.4232144,
    "superficie_kmq": 79.9556,
    "flag_capoluogo": "SI",
    "pageviews": 102554,
    "provincia": "Vercelli",
    "regione": "Piemonte"
  },
  {
    "nome_comune": "Villarboit",
    "codice_provincia": "VC",
    "lat": 45.4365745,
    "lon": 8.3367442,
    "superficie_kmq": 25.6215,
    "flag_capoluogo": "NO",
    "pageviews": 13347,
    "provincia": "Vercelli",
    "regione": "Piemonte"
  },
  {
    "nome_comune": "Villata",
    "codice_provincia": "VC",
    "lat": 45.3854396,
    "lon": 8.4328002,
    "superficie_kmq": 14.6991,
    "flag_capoluogo": "NO",
    "pageviews": 2195,
    "provincia": "Vercelli",
    "regione": "Piemonte"
  },
  {
    "nome_comune": "Vocca",
    "codice_provincia": "VC",
    "lat": 45.8310243,
    "lon": 8.1874999,
    "superficie_kmq": 20.1894,
    "flag_capoluogo": "NO",
    "pageviews": 1598,
    "provincia": "Vercelli",
    "regione": "Piemonte"
  },
  {
    "nome_comune": "Alto Sermenza",
    "codice_provincia": "VC",
    "lat": 45.8584278,
    "lon": 8.0630581,
    "superficie_kmq": 60.241,
    "flag_capoluogo": "NO",
    "pageviews": 4121,
    "provincia": "Vercelli",
    "regione": "Piemonte"
  },
  {
    "nome_comune": "Cellio con Breia",
    "codice_provincia": "VC",
    "lat": 45.7554576,
    "lon": 8.3131315,
    "superficie_kmq": 17.4209,
    "flag_capoluogo": "NO",
    "pageviews": 3019,
    "provincia": "Vercelli",
    "regione": "Piemonte"
  },
  {
    "nome_comune": "Agrate Conturbia",
    "codice_provincia": "NO",
    "lat": 45.6760853,
    "lon": 8.5598353,
    "superficie_kmq": 14.54,
    "flag_capoluogo": "NO",
    "pageviews": 4886,
    "provincia": "Novara",
    "regione": "Piemonte"
  },
  {
    "nome_comune": "Ameno",
    "codice_provincia": "NO",
    "lat": 45.7888831,
    "lon": 8.4395097,
    "superficie_kmq": 10.1309,
    "flag_capoluogo": "NO",
    "pageviews": 4976,
    "provincia": "Novara",
    "regione": "Piemonte"
  },