[
  {
    "nome_comune": "Agliè",
    "codice_provincia": "TO",
    "lat": 45.3634669,
    "lon": 7.7686057,
    "superficie_kmq": 13.2407,
    "flag_capoluogo": "NO",
    "pageviews": 16817,
    "provincia": "Torino",
    "regione": "Piemonte",
    "abitanti": 2601,
    "immagine": "https://upload.wikimedia.org/wikipedia/commons/thumb/b/be/Agli%C3%A8_castello.JPG/330px-Agli%C3%A8_castello.JPG"
  },
  {
    "nome_comune": "Airasca",
    "codice_provincia": "TO",
    "lat": 44.9170061,
    "lon": 7.4845045,
    "superficie_kmq": 16.0327,
    "flag_capoluogo": "NO",
    "pageviews": 5701,
    "provincia": "Torino",
    "regione": "Piemonte",
    "abitanti": 3698,
    "immagine": "https://upload.wikimedia.org/wikipedia/commons/thumb/6/6e/Airasca_sping_2009.jpg/330px-Airasca_sping_2009.jpg"
  },
  {
    "nome_comune": "Ala di Stura",
    "codice_provincia": "TO",
    "lat": 45.3149237,
    "lon": 7.304367,
    "superficie_kmq": 46.1749,
    "flag_capoluogo": "NO",
    "pageviews": 6682,
    "provincia": "Torino",
    "regione": "Piemonte",
    "abitanti": 466,
    "immagine": "https://upload.wikimedia.org/wikipedia/it/9/9f/Ala_di_Stura-Gonfalone.png"
  },
  {
    "nome_comune": "Albiano d'Ivrea",
    "codice_provincia": "TO",
    "lat": 45.4336463,
    "lon": 7.9495045,
    "superficie_kmq": 11.677,
    "flag_capoluogo": "NO",
    "pageviews": 2844,
    "provincia": "Torino",
    "regione": "Piemonte",
    "abitanti": 1645,
    "immagine": "https://upload.wikimedia.org/wikipedia/commons/thumb/7/7a/Albiano_Ivrea_Panorama.JPG/330px-Albiano_Ivrea_Panorama.JPG"
  },
  {
    "nome_comune": "Almese",
    "codice_provincia": "TO",
    "lat": 45.1176654,
    "lon": 7.3951859,
    "superficie_kmq": 17.9879,
    "flag_capoluogo": "NO",
    "pageviews": 6257,
    "provincia": "Torino",
    "regione": "Piemonte",
    "abitanti": 6260,
    "immagine": "https://upload.wikimedia.org/wikipedia/it/5/52/Almese-Gonfalone.png"
  },
  {
    "nome_comune": "Alpette",
    "codice_provincia": "TO",
    "lat": 45.4099554,
    "lon": 7.5785615,
    "superficie_kmq": 5.5557,
    "flag_capoluogo": "NO",
    "pageviews": 5827,
    "provincia": "Torino",
    "regione": "Piemonte",
    "abitanti": 235,
    "immagine": "https://upload.wikimedia.org/wikipedia/commons/thumb/3/38/ALPETTE.JPG/330px-ALPETTE.JPG"
  },
  {
    "nome_comune": "AlpigNAo",
    "codice_provincia": "TO",
    "lat": 45.0944686,
    "lon": 7.5242628,
    "superficie_kmq": 11.8972,
    "flag_capoluogo": "NO",
    "pageviews": 12404,
    "provincia": "Torino",
    "regione": "Piemonte",
    "abitanti": 16567,
    "immagine": "https://upload.wikimedia.org/wikipedia/it/4/4f/AlpigNAo-Gonfalone.png"
  },
  {
    "nome_comune": "Andezeno",
    "codice_provincia": "TO",
    "lat": 45.0358946,
    "lon": 7.8699281,
    "superficie_kmq": 7.4766,
    "flag_capoluogo": "NO",
    "pageviews": 4512,
    "provincia": "Torino",
    "regione": "Piemonte",
    "abitanti": 1982,
    "immagine": "https://upload.wikimedia.org/wikipedia/commons/thumb/3/3b/45._Andezeno.jpg/330px-45._Andezeno.jpg"
  },
  {
    "nome_comune": "Andrate",
    "codice_provincia": "TO",
    "lat": 45.5283724,
    "lon": 7.8738546,
    "superficie_kmq": 9.3573,
    "flag_capoluogo": "NO",
    "pageviews": 4228,
    "provincia": "Torino",
    "regione": "Piemonte",
    "abitanti": 469,
    "immagine": "https://upload.wikimedia.org/wikipedia/commons/thumb/1/16/Italy_provincial_location_map_2016.svg/330px-Italy_provincial_location_map_2016.svg.png"
  },
  {
    "nome_comune": "Angrogna",
    "codice_provincia": "TO",
    "lat": 44.8436082,
    "lon": 7.2242658,
    "superficie_kmq": 38.4088,
    "flag_capoluogo": "NO",
    "pageviews": 6062,
    "provincia": "Torino",
    "regione": "Piemonte",
    "abitanti": 810,
    "immagine": "https://upload.wikimedia.org/wikipedia/commons/thumb/1/16/Italy_provincial_location_map_2016.svg/330px-Italy_provincial_location_map_2016.svg.png"
  },
  {
    "nome_comune": "ArigNAo",
    "codice_provincia": "TO",
    "lat": 45.0437016,
    "lon": 7.901897,
    "superficie_kmq": 7.9611,
    "flag_capoluogo": "NO",
    "pageviews": 3671,
    "provincia": "Torino",
    "regione": "Piemonte",
    "abitanti": 1085,
    "immagine": "https://upload.wikimedia.org/wikipedia/commons/thumb/5/59/ArigNAo_municipio.jpg/330px-ArigNAo_municipio.jpg"
  },
  {
    "nome_comune": "Avigliana",
    "codice_provincia": "TO",
    "lat": 45.0793678,
    "lon": 7.3963516,
    "superficie_kmq": 22.9933,
    "flag_capoluogo": "NO",
    "pageviews": 33426,
    "provincia": "Torino",
    "regione": "Piemonte",
    "abitanti": 12108,
    "immagine": "https://upload.wikimedia.org/wikipedia/commons/thumb/d/d8/Avigliana_panorama.jpg/330px-Avigliana_panorama.jpg"
  },
  {
    "nome_comune": "Azeglio",
    "codice_provincia": "TO",
    "lat": 45.4248532,
    "lon": 7.9947436,
    "superficie_kmq": 9.8641,
    "flag_capoluogo": "NO",
    "pageviews": 3357,
    "provincia": "Torino",
    "regione": "Piemonte",
    "abitanti": 1227,
    "immagine": "https://upload.wikimedia.org/wikipedia/commons/thumb/7/74/Azeglio_Panorama.JPG/330px-Azeglio_Panorama.JPG"
  },
  {
    "nome_comune": "Bairo",
    "codice_provincia": "TO",
    "lat": 45.3862699,
    "lon": 7.7569141,
    "superficie_kmq": 7.0805,
    "flag_capoluogo": "NO",
    "pageviews": 3395,
    "provincia": "Torino",
    "regione": "Piemonte",
    "abitanti": 781,
    "immagine": "https://upload.wikimedia.org/wikipedia/commons/thumb/d/da/Bairo_Parrocchiale_Torre.jpg/330px-Bairo_Parrocchiale_Torre.jpg"
  },
  {
    "nome_comune": "Balangero",
    "codice_provincia": "TO",
    "lat": 45.270003,
    "lon": 7.5192683,
    "superficie_kmq": 12.9315,
    "flag_capoluogo": "NO",
    "pageviews": 4305,
    "provincia": "Torino",
    "regione": "Piemonte",
    "abitanti": 3070,
    "immagine": "https://upload.wikimedia.org/wikipedia/commons/thumb/5/5a/Balangero_dalla_collina_di_la_cassa.jpg/330px-Balangero_dalla_collina_di_la_cassa.jpg"
  },
  {
    "nome_comune": "Baldissero Canavese",
    "codice_provincia": "TO",
    "lat": 45.4084019,
    "lon": 7.7443534,
    "superficie_kmq": 4.6465,
    "flag_capoluogo": "NO",
    "pageviews": 1860,
    "provincia": "Torino",
    "regione": "Piemonte",
    "abitanti": 488,
    "immagine": "https://upload.wikimedia.org/wikipedia/commons/thumb/4/4d/Baldissero_Canavese_Chiesa_Parrocchiale.jpg/330px-Baldissero_Canavese_Chiesa_Parrocchiale.jpg"
  },
  {
    "nome_comune": "Baldissero Torinese",
    "codice_provincia": "TO",
    "lat": 45.0684291,
    "lon": 7.8177989,
    "superficie_kmq": 15.5118,
    "flag_capoluogo": "NO",
    "pageviews": 5813,
    "provincia": "Torino",
    "regione": "Piemonte",
    "abitanti": 3708,
    "immagine": "https://upload.wikimedia.org/wikipedia/commons/thumb/4/47/BaldisseroTorinese%2C_Italy_panorama.jpg/330px-BaldisseroTorinese%2C_Italy_panorama.jpg"
  },
  {
    "nome_comune": "Balme",
    "codice_provincia": "TO",
    "lat": 45.3023388,
    "lon": 7.2183609,
    "superficie_kmq": 62.7379,
    "flag_capoluogo": "NO",
    "pageviews": 10409,
    "provincia": "Torino",
    "regione": "Piemonte",
    "abitanti": 97,
    "immagine": "https://upload.wikimedia.org/wikipedia/it/thumb/b/bf/Balme-Gonfalone.png/330px-Balme-Gonfalone.png"
  },
  {
    "nome_comune": "Banchette",
    "codice_provincia": "TO",
    "lat": 45.4608248,
    "lon": 7.8563818,
    "superficie_kmq": 2.0108,
    "flag_capoluogo": "NO",
    "pageviews": 2541,
    "provincia": "Torino",
    "regione": "Piemonte",
    "abitanti": 3117,
    "immagine": "https://upload.wikimedia.org/wikipedia/commons/thumb/1/12/Castello_di_Banchette_Italia_5.jpg/330px-Castello_di_Banchette_Italia_5.jpg"
  },
  {
    "nome_comune": "Barbania",
    "codice_provincia": "TO",
    "lat": 45.2904913,
    "lon": 7.6304781,
    "superficie_kmq": 12.7821,
    "flag_capoluogo": "NO",
    "pageviews": 4328,
    "provincia": "Torino",
    "regione": "Piemonte",
    "abitanti": 1580,
    "immagine": "https://upload.wikimedia.org/wikipedia/commons/thumb/b/b5/Chiesa_S.Giuliano_martire.JPG/330px-Chiesa_S.Giuliano_martire.JPG"
  },
  {
    "nome_comune": "Bardonecchia",
    "codice_provincia": "TO",
    "lat": 45.0781507,
    "lon": 6.7038976,
    "superficie_kmq": 132.3111,
    "flag_capoluogo": "NO",
    "pageviews": 73717,
    "provincia": "Torino",
    "regione": "Piemonte",
    "abitanti": 2879,
    "immagine": "https://upload.wikimedia.org/wikipedia/commons/thumb/e/ef/Bardonecchia_panorama.jpg/330px-Bardonecchia_panorama.jpg"
  },
  {
    "nome_comune": "Barone Canavese",
    "codice_provincia": "TO",
    "lat": 45.3277288,
    "lon": 7.8705578,
    "superficie_kmq": 3.9888,
    "flag_capoluogo": "NO",
    "pageviews": 1365,
    "provincia": "Torino",
    "regione": "Piemonte",
    "abitanti": 531,
    "immagine": "https://upload.wikimedia.org/wikipedia/it/7/75/Barone_Canavese-Gonfalone.png"
  },
  {
    "nome_comune": "Beinasco",
    "codice_provincia": "TO",
    "lat": 45.0220788,
    "lon": 7.5790186,
    "superficie_kmq": 6.9173,
    "flag_capoluogo": "NO",
    "pageviews": 9941,
    "provincia": "Torino",
    "regione": "Piemonte",
    "abitanti": 17302,
    "immagine": "https://upload.wikimedia.org/wikipedia/commons/f/fc/Beinasco_municipio.jpg"
  },
  {
    "nome_comune": "Bibiana",
    "codice_provincia": "TO",
    "lat": 44.797598,
    "lon": 7.2898046,
    "superficie_kmq": 18.4711,
    "flag_capoluogo": "NO",
    "pageviews": 3689,
    "provincia": "Torino",
    "regione": "Piemonte",
    "abitanti": 3376,
    "immagine": "https://upload.wikimedia.org/wikipedia/commons/thumb/0/04/Chiesa_Bibiana.jpg/330px-Chiesa_Bibiana.jpg"
  },
  {
    "nome_comune": "Bobbio Pellice",
    "codice_provincia": "TO",
    "lat": 44.8076971,
    "lon": 7.1170209,
    "superficie_kmq": 94.1049,
    "flag_capoluogo": "NO",
    "pageviews": 8411,
    "provincia": "Torino",
    "regione": "Piemonte",
    "abitanti": 520,
    "immagine": "https://upload.wikimedia.org/wikipedia/commons/thumb/9/93/Bobbio_Pellice.jpg/330px-Bobbio_Pellice.jpg"
  },
  {
    "nome_comune": "Bollengo",
    "codice_provincia": "TO",
    "lat": 45.4733455,
    "lon": 7.9453007,
    "superficie_kmq": 14.3398,
    "flag_capoluogo": "NO",
    "pageviews": 3060,
    "provincia": "Torino",
    "regione": "Piemonte",
    "abitanti": 2102,
    "immagine": "https://upload.wikimedia.org/wikipedia/commons/thumb/0/04/Bollengo_Campanile_Romanico_2.JPG/330px-Bollengo_Campanile_Romanico_2.JPG"
  },
  {
    "nome_comune": "Borgaro Torinese",
    "codice_provincia": "TO",
    "lat": 45.152005,
    "lon": 7.6578945,
    "superficie_kmq": 10.8136,
    "flag_capoluogo": "NO",
    "pageviews": 11383,
    "provincia": "Torino",
    "regione": "Piemonte",
    "abitanti": 11605,
    "immagine": "https://upload.wikimedia.org/wikipedia/commons/thumb/6/6e/Borgaro_torinese_municipio.jpg/330px-Borgaro_torinese_municipio.jpg"
  },
  {
    "nome_comune": "Borgiallo",
    "codice_provincia": "TO",
    "lat": 45.4167662,
    "lon": 7.6677454,
    "superficie_kmq": 7.0506,
    "flag_capoluogo": "NO",
    "pageviews": 2096,
    "provincia": "Torino",
    "regione": "Piemonte",
    "abitanti": 592,
    "immagine": "https://upload.wikimedia.org/wikipedia/commons/thumb/7/7f/Quinseina_da_borgiallo_san_carlo.jpg/330px-Quinseina_da_borgiallo_san_carlo.jpg"
  },
  {
    "nome_comune": "Borgofranco d'Ivrea",
    "codice_provincia": "TO",
    "lat": 45.5124142,
    "lon": 7.8594264,
    "superficie_kmq": 13.3007,
    "flag_capoluogo": "NO",
    "pageviews": 4455,
    "provincia": "Torino",
    "regione": "Piemonte",
    "abitanti": 3416,
    "immagine": "https://upload.wikimedia.org/wikipedia/commons/thumb/b/b6/Borgofranco_Ivrea_Palazzo_Marini.JPG/330px-Borgofranco_Ivrea_Palazzo_Marini.JPG"
  },
  {
    "nome_comune": "Borgomasino",
    "codice_provincia": "TO",
    "lat": 45.3616875,
    "lon": 7.9887949,
    "superficie_kmq": 12.097,
    "flag_capoluogo": "NO",
    "pageviews": 2082,
    "provincia": "Torino",
    "regione": "Piemonte",
    "abitanti": 759,
    "immagine": "https://upload.wikimedia.org/wikipedia/commons/thumb/2/2a/Borgomasino_da_est.jpg/330px-Borgomasino_da_est.jpg"
  },
  {
    "nome_comune": "Borgone Susa",
    "codice_provincia": "TO",
    "lat": 45.1231172,
    "lon": 7.2412061,
    "superficie_kmq": 4.9407,
    "flag_capoluogo": "NO",
    "pageviews": 2679,
    "provincia": "Torino",
    "regione": "Piemonte",
    "abitanti": 2226,
    "immagine": "https://upload.wikimedia.org/wikipedia/it/0/0d/Borgone_Susa-Gonfalone.png"
  },
  {
    "nome_comune": "Bosconero",
    "codice_provincia": "TO",
    "lat": 45.2686534,
    "lon": 7.7651464,
    "superficie_kmq": 10.9326,
    "flag_capoluogo": "NO",
    "pageviews": 8686,
    "provincia": "Torino",
    "regione": "Piemonte",
    "abitanti": 3047,
    "immagine": "https://upload.wikimedia.org/wikipedia/commons/thumb/d/de/Bosconero_piazza.jpg/330px-Bosconero_piazza.jpg"
  },
  {
    "nome_comune": "Brandizzo",
    "codice_provincia": "TO",
    "lat": 45.1775115,
    "lon": 7.8414393,
    "superficie_kmq": 6.3944,
    "flag_capoluogo": "NO",
    "pageviews": 6950,
    "provincia": "Torino",
    "regione": "Piemonte",
    "abitanti": 8717,
    "immagine": "https://upload.wikimedia.org/wikipedia/it/thumb/5/5d/Brandizzo-Gonfalone.png/300px-Brandizzo-Gonfalone.png"
  },
  {
    "nome_comune": "Bricherasio",
    "codice_provincia": "TO",
    "lat": 44.8255744,
    "lon": 7.3028322,
    "superficie_kmq": 22.8629,
    "flag_capoluogo": "NO",
    "pageviews": 7492,
    "provincia": "Torino",
    "regione": "Piemonte",
    "abitanti": 4608,
    "immagine": "https://upload.wikimedia.org/wikipedia/commons/thumb/2/24/Bricherasio_municipio.jpg/330px-Bricherasio_municipio.jpg"
  },
  {
    "nome_comune": "Brosso",
    "codice_provincia": "TO",
    "lat": 45.4926955,
    "lon": 7.8033171,
    "superficie_kmq": 11.1146,
    "flag_capoluogo": "NO",
    "pageviews": 3352,
    "provincia": "Torino",
    "regione": "Piemonte",
    "abitanti": 384,
    "immagine": "https://upload.wikimedia.org/wikipedia/commons/thumb/e/e3/Brosso_Piazza_Municipio.jpg/330px-Brosso_Piazza_Municipio.jpg"
  },
  {
    "nome_comune": "Brozolo",
    "codice_provincia": "TO",
    "lat": 45.1173992,
    "lon": 8.0712843,
    "superficie_kmq": 8.9214,
    "flag_capoluogo": "NO",
    "pageviews": 2172,
    "provincia": "Torino",
    "regione": "Piemonte",
    "abitanti": 434,
    "immagine": "https://upload.wikimedia.org/wikipedia/it/4/43/Brozolo-Gonfalone.png"
  },
  {
    "nome_comune": "Bruino",
    "codice_provincia": "TO",
    "lat": 45.0202276,
    "lon": 7.4677006,
    "superficie_kmq": 5.7648,
    "flag_capoluogo": "NO",
    "pageviews": 4503,
    "provincia": "Torino",
    "regione": "Piemonte",
    "abitanti": 8347,
    "immagine": "https://upload.wikimedia.org/wikipedia/commons/thumb/9/92/Bruino_10-2011_-_panoramio.jpg/330px-Bruino_10-2011_-_panoramio.jpg"
  },
  {
    "nome_comune": "Brusasco",
    "codice_provincia": "TO",
    "lat": 45.1560453,
    "lon": 8.0601414,
    "superficie_kmq": 14.221,
    "flag_capoluogo": "NO",
    "pageviews": 3532,
    "provincia": "Torino",
    "regione": "Piemonte",
    "abitanti": 1490,
    "immagine": "https://upload.wikimedia.org/wikipedia/commons/thumb/6/68/Palazzo_Ellena.JPG/330px-Palazzo_Ellena.JPG"
  },
  {
    "nome_comune": "Bruzolo",
    "codice_provincia": "TO",
    "lat": 45.1431777,
    "lon": 7.1939889,
    "superficie_kmq": 12.5302,
    "flag_capoluogo": "NO",
    "pageviews": 2557,
    "provincia": "Torino",
    "regione": "Piemonte",
    "abitanti": 1508,
    "immagine": "https://upload.wikimedia.org/wikipedia/commons/thumb/1/19/Bruzolo.jpg/330px-Bruzolo.jpg"
  },
  {
    "nome_comune": "Buriasco",
    "codice_provincia": "TO",
    "lat": 44.8735338,
    "lon": 7.4118721,
    "superficie_kmq": 14.7791,
    "flag_capoluogo": "NO",
    "pageviews": 2818,
    "provincia": "Torino",
    "regione": "Piemonte",
    "abitanti": 1288,
    "immagine": "https://upload.wikimedia.org/wikipedia/commons/thumb/3/34/Buriasco_municipio.jpg/330px-Buriasco_municipio.jpg"
  },
  {
    "nome_comune": "Burolo",
    "codice_provincia": "TO",
    "lat": 45.4840947,
    "lon": 7.9319799,
    "superficie_kmq": 5.4655,
    "flag_capoluogo": "NO",
    "pageviews": 2048,
    "provincia": "Torino",
    "regione": "Piemonte",
    "abitanti": 1100,
    "immagine": "https://upload.wikimedia.org/wikipedia/commons/thumb/f/fa/Burolo_Parrocchiale.JPG/330px-Burolo_Parrocchiale.JPG"
  },
  {
    "nome_comune": "Busano",
    "codice_provincia": "TO",
    "lat": 45.3288942,
    "lon": 7.6554181,
    "superficie_kmq": 5.0997,
    "flag_capoluogo": "NO",
    "pageviews": 2206,
    "provincia": "Torino",
    "regione": "Piemonte",
    "abitanti": 1599,
    "immagine": "https://upload.wikimedia.org/wikipedia/commons/thumb/4/41/Busano_Chiesa_Parrocchiale.jpg/330px-Busano_Chiesa_Parrocchiale.jpg"
  },
  {
    "nome_comune": "Bussoleno",
    "codice_provincia": "TO",
    "lat": 45.1373365,
    "lon": 7.1493898,
    "superficie_kmq": 37.4083,
    "flag_capoluogo": "NO",
    "pageviews": 10520,
    "provincia": "Torino",
    "regione": "Piemonte",
    "abitanti": 5784,
    "immagine": "https://upload.wikimedia.org/wikipedia/commons/thumb/f/fb/BussolenoDaSopra.JPG/330px-BussolenoDaSopra.JPG"
  },
  {
    "nome_comune": "Buttigliera Alta",
    "codice_provincia": "TO",
    "lat": 45.0669813,
    "lon": 7.4368254,
    "superficie_kmq": 8.1008,
    "flag_capoluogo": "NO",
    "pageviews": 4981,
    "provincia": "Torino",
    "regione": "Piemonte",
    "abitanti": 6244,
    "immagine": "https://upload.wikimedia.org/wikipedia/commons/thumb/9/9f/Buttigliera_alta_da_costa_musin%C3%A8.jpg/330px-Buttigliera_alta_da_costa_musin%C3%A8.jpg"
  },
  {
    "nome_comune": "Cafasse",
    "codice_provincia": "TO",
    "lat": 45.2446575,
    "lon": 7.5181803,
    "superficie_kmq": 10.4286,
    "flag_capoluogo": "NO",
    "pageviews": 3687,
    "provincia": "Torino",
    "regione": "Piemonte",
    "abitanti": 3391,
    "immagine": "https://upload.wikimedia.org/wikipedia/it/2/2a/Cafasse-Gonfalone.png"
  },
  {
    "nome_comune": "Caluso",
    "codice_provincia": "TO",
    "lat": 45.3078184,
    "lon": 7.8914899,
    "superficie_kmq": 39.3056,
    "flag_capoluogo": "NO",
    "pageviews": 9218,
    "provincia": "Torino",
    "regione": "Piemonte",
    "abitanti": 7321,
    "immagine": "https://upload.wikimedia.org/wikipedia/commons/thumb/9/9d/Caluso_veduta.jpg/330px-Caluso_veduta.jpg"
  },
  {
    "nome_comune": "Cambiano",
    "codice_provincia": "TO",
    "lat": 44.9734653,
    "lon": 7.7792962,
    "superficie_kmq": 14.1118,
    "flag_capoluogo": "NO",
    "pageviews": 8858,
    "provincia": "Torino",
    "regione": "Piemonte",
    "abitanti": 5898,
    "immagine": "https://upload.wikimedia.org/wikipedia/commons/thumb/7/76/Chiesa_dei_Santi_Vincenzo_e_Anastasio%2C_Cambiano%2C_Italia.jpg/330px-Chiesa_dei_Santi_Vincenzo_e_Anastasio%2C_Cambiano%2C_Italia.jpg"
  },
  {
    "nome_comune": "Campiglione Fenile",
    "codice_provincia": "TO",
    "lat": 44.8021531,
    "lon": 7.3250696,
    "superficie_kmq": 11.2164,
    "flag_capoluogo": "NO",
    "pageviews": 73,
    "provincia": "Torino",
    "regione": "Piemonte",
    "abitanti": null,
    "immagine": "https://upload.wikimedia.org/wikipedia/commons/thumb/3/3f/Campiglione_fenile_municipio.jpg/330px-Campiglione_fenile_municipio.jpg"
  },
  {
    "nome_comune": "Candia Canavese",
    "codice_provincia": "TO",
    "lat": 45.3281447,
    "lon": 7.8865424,
    "superficie_kmq": 9.3217,
    "flag_capoluogo": "NO",
    "pageviews": 3609,
    "provincia": "Torino",
    "regione": "Piemonte",
    "abitanti": 1149,
    "immagine": "https://upload.wikimedia.org/wikipedia/commons/thumb/0/08/CandiaCse.jpg/330px-CandiaCse.jpg"
  },
  {
    "nome_comune": "Candiolo",
    "codice_provincia": "TO",
    "lat": 44.9603898,
    "lon": 7.6013874,
    "superficie_kmq": 12.0907,
    "flag_capoluogo": "NO",
    "pageviews": 6124,
    "provincia": "Torino",
    "regione": "Piemonte",
    "abitanti": 5579,
    "immagine": "https://upload.wikimedia.org/wikipedia/commons/thumb/8/8c/Candiolo.jpg/330px-Candiolo.jpg"
  },
  {
    "nome_comune": "Canischio",
    "codice_provincia": "TO",
    "lat": 45.3743281,
    "lon": 7.5951811,
    "superficie_kmq": 11.9514,
    "flag_capoluogo": "NO",
    "pageviews": 2371,
    "provincia": "Torino",
    "regione": "Piemonte",
    "abitanti": 268,
    "immagine": "https://upload.wikimedia.org/wikipedia/it/6/6d/Canischio-Gonfalone.png"
  },
  {
    "nome_comune": "Cantalupa",
    "codice_provincia": "TO",
    "lat": 44.9402685,
    "lon": 7.3326819,
    "superficie_kmq": 11.3822,
    "flag_capoluogo": "NO",
    "pageviews": 5431,
    "provincia": "Torino",
    "regione": "Piemonte",
    "abitanti": 2556,
    "immagine": "https://upload.wikimedia.org/wikipedia/commons/thumb/c/cc/Cantalupa_da_monte_brunello.jpg/330px-Cantalupa_da_monte_brunello.jpg"
  },
  {
    "nome_comune": "Cantoira",
    "codice_provincia": "TO",
    "lat": 45.3432131,
    "lon": 7.3817884,
    "superficie_kmq": 23.0569,
    "flag_capoluogo": "NO",
    "pageviews": 5834,
    "provincia": "Torino",
    "regione": "Piemonte",
    "abitanti": 645,
    "immagine": "https://upload.wikimedia.org/wikipedia/it/0/08/Cantoira-Gonfalone.png"
  },
  {
    "nome_comune": "Caprie",
    "codice_provincia": "TO",
    "lat": 45.1178288,
    "lon": 7.332553,
    "superficie_kmq": 16.3344,
    "flag_capoluogo": "NO",
    "pageviews": 3304,
    "provincia": "Torino",
    "regione": "Piemonte",
    "abitanti": 2007,
    "immagine": "https://upload.wikimedia.org/wikipedia/commons/thumb/1/16/Italy_provincial_location_map_2016.svg/330px-Italy_provincial_location_map_2016.svg.png"
  },
  {
    "nome_comune": "Caravino",
    "codice_provincia": "TO",
    "lat": 45.3986173,
    "lon": 7.9601459,
    "superficie_kmq": 11.4834,
    "flag_capoluogo": "NO",
    "pageviews": 2976,
    "provincia": "Torino",
    "regione": "Piemonte",
    "abitanti": 872,
    "immagine": "https://upload.wikimedia.org/wikipedia/commons/thumb/0/01/Caravino_via_Saudino.JPG/330px-Caravino_via_Saudino.JPG"
  },
  {
    "nome_comune": "Carema",
    "codice_provincia": "TO",
    "lat": 45.5844506,
    "lon": 7.8123537,
    "superficie_kmq": 10.5759,
    "flag_capoluogo": "NO",
    "pageviews": 5109,
    "provincia": "Torino",
    "regione": "Piemonte",
    "abitanti": 698,
    "immagine": "https://upload.wikimedia.org/wikipedia/commons/thumb/8/80/Panorama_di_Carema.JPG/330px-Panorama_di_Carema.JPG"
  },
  {
    "nome_comune": "CarigNAo",
    "codice_provincia": "TO",
    "lat": 44.9080171,
    "lon": 7.6760348,
    "superficie_kmq": 49.9511,
    "flag_capoluogo": "NO",
    "pageviews": 13357,
    "provincia": "Torino",
    "regione": "Piemonte",
    "abitanti": 9238,
    "immagine": "https://upload.wikimedia.org/wikipedia/commons/thumb/e/e4/Portici_ed_abside_del_duomo%2C_CarigNAo%2C_Italia.jpg/330px-Portici_ed_abside_del_duomo%2C_CarigNAo%2C_Italia.jpg"
  },
  {
    "nome_comune": "Carmagnola",
    "codice_provincia": "TO",
    "lat": 44.8464786,
    "lon": 7.7180847,
    "superficie_kmq": 95.9817,
    "flag_capoluogo": "NO",
    "pageviews": 40483,
    "provincia": "Torino",
    "regione": "Piemonte",
    "abitanti": 28033,
    "immagine": "https://upload.wikimedia.org/wikipedia/it/thumb/3/3e/Carmagnola-Gonfalone.png/300px-Carmagnola-Gonfalone.png"
  },
  {
    "nome_comune": "Casalborgone",
    "codice_provincia": "TO",
    "lat": 45.1299488,
    "lon": 7.9405843,
    "superficie_kmq": 20.2674,
    "flag_capoluogo": "NO",
    "pageviews": 3968,
    "provincia": "Torino",
    "regione": "Piemonte",
    "abitanti": 1872,
    "immagine": "https://upload.wikimedia.org/wikipedia/it/1/1c/Casalborgone-Gonfalone.png"
  },
  {
    "nome_comune": "Cascinette d'Ivrea",
    "codice_provincia": "TO",
    "lat": 45.4787767,
    "lon": 7.9038942,
    "superficie_kmq": 2.2658,
    "flag_capoluogo": "NO",
    "pageviews": 1507,
    "provincia": "Torino",
    "regione": "Piemonte",
    "abitanti": 1517,
    "immagine": "https://upload.wikimedia.org/wikipedia/commons/thumb/c/cb/Cascinette_Ivrea_Campanile.jpg/330px-Cascinette_Ivrea_Campanile.jpg"
  },
  {
    "nome_comune": "Caselette",
    "codice_provincia": "TO",
    "lat": 45.1058965,
    "lon": 7.4832283,
    "superficie_kmq": 14.1999,
    "flag_capoluogo": "NO",
    "pageviews": 4694,
    "provincia": "Torino",
    "regione": "Piemonte",
    "abitanti": 3013,
    "immagine": "https://upload.wikimedia.org/wikipedia/commons/thumb/c/cb/Caselette_dal_musin%C3%A8.jpg/330px-Caselette_dal_musin%C3%A8.jpg"
  },
  {
    "nome_comune": "Caselle Torinese",
    "codice_provincia": "TO",
    "lat": 45.1772268,
    "lon": 7.647983,
    "superficie_kmq": 23.8012,
    "flag_capoluogo": "NO",
    "pageviews": 8514,
    "provincia": "Torino",
    "regione": "Piemonte",
    "abitanti": 13746,
    "immagine": "https://upload.wikimedia.org/wikipedia/commons/thumb/0/0d/Caselle001.JPG/330px-Caselle001.JPG"
  },
  {
    "nome_comune": "Castagneto Po",
    "codice_provincia": "TO",
    "lat": 45.1606279,
    "lon": 7.8870392,
    "superficie_kmq": 11.4318,
    "flag_capoluogo": "NO",
    "pageviews": 7777,
    "provincia": "Torino",
    "regione": "Piemonte",
    "abitanti": 1751,
    "immagine": "https://upload.wikimedia.org/wikipedia/commons/thumb/0/02/Castagneto_Po_cpa.jpg/330px-Castagneto_Po_cpa.jpg"
  },
  {
    "nome_comune": "Castagnole Piemonte",
    "codice_provincia": "TO",
    "lat": 44.8985413,
    "lon": 7.5665658,
    "superficie_kmq": 17.2175,
    "flag_capoluogo": "NO",
    "pageviews": 3272,
    "provincia": "Torino",
    "regione": "Piemonte",
    "abitanti": 2179,
    "immagine": "https://upload.wikimedia.org/wikipedia/commons/thumb/9/9d/Edificio_a_Castagnole_Piemonte%2C_citt%C3%A0_metropolitana_di_Torino.jpg/330px-Edificio_a_Castagnole_Piemonte%2C_citt%C3%A0_metropolitana_di_Torino.jpg"
  },
  {
    "nome_comune": "Castellamonte",
    "codice_provincia": "TO",
    "lat": 45.3833442,
    "lon": 7.7098255,
    "superficie_kmq": 38.2575,
    "flag_capoluogo": "NO",
    "pageviews": 12683,
    "provincia": "Torino",
    "regione": "Piemonte",
    "abitanti": 9845,
    "immagine": "https://upload.wikimedia.org/wikipedia/commons/thumb/9/92/Castellamonte_Panorama_con_SRocco.JPG/330px-Castellamonte_Panorama_con_SRocco.JPG"
  },
  {
    "nome_comune": "Castelnuovo Nigra",
    "codice_provincia": "TO",
    "lat": 45.4372093,
    "lon": 7.6952282,
    "superficie_kmq": 28.6535,
    "flag_capoluogo": "NO",
    "pageviews": 5657,
    "provincia": "Torino",
    "regione": "Piemonte",
    "abitanti": 409,
    "immagine": "https://upload.wikimedia.org/wikipedia/commons/thumb/b/b8/Castelnuovo_nigra_bric_filia_visitazione.jpg/330px-Castelnuovo_nigra_bric_filia_visitazione.jpg"
  },
  {
    "nome_comune": "Castiglione Torinese",
    "codice_provincia": "TO",
    "lat": 45.1233326,
    "lon": 7.8162459,
    "superficie_kmq": 14.2039,
    "flag_capoluogo": "NO",
    "pageviews": 4456,
    "provincia": "Torino",
    "regione": "Piemonte",
    "abitanti": 6483,
    "immagine": "https://upload.wikimedia.org/wikipedia/it/a/a6/Castiglione_Torinese-Gonfalone.png"
  },
  {
    "nome_comune": "Cavagnolo",
    "codice_provincia": "TO",
    "lat": 45.1521104,
    "lon": 8.0513851,
    "superficie_kmq": 12.6643,
    "flag_capoluogo": "NO",
    "pageviews": 4338,
    "provincia": "Torino",
    "regione": "Piemonte",
    "abitanti": 2349,
    "immagine": "https://upload.wikimedia.org/wikipedia/commons/thumb/2/2d/Chiesa_di_San_Secondo_-_Cavagnolo.JPG/330px-Chiesa_di_San_Secondo_-_Cavagnolo.JPG"
  },
  {
    "nome_comune": "Cavour",
    "codice_provincia": "TO",
    "lat": 44.7841236,
    "lon": 7.3751914,
    "superficie_kmq": 48.6086,
    "flag_capoluogo": "NO",
    "pageviews": 3297,
    "provincia": "Torino",
    "regione": "Piemonte",
    "abitanti": null,
    "immagine": "https://upload.wikimedia.org/wikipedia/commons/thumb/c/c2/Camillo_Benso_Cavour_di_Ciseri.jpg/330px-Camillo_Benso_Cavour_di_Ciseri.jpg"
  },
  {
    "nome_comune": "Cercenasco",
    "codice_provincia": "TO",
    "lat": 44.8612625,
    "lon": 7.5012234,
    "superficie_kmq": 13.2433,
    "flag_capoluogo": "NO",
    "pageviews": 2387,
    "provincia": "Torino",
    "regione": "Piemonte",
    "abitanti": 1771,
    "immagine": "https://upload.wikimedia.org/wikipedia/commons/thumb/a/aa/Cercenasco_municipio.jpg/330px-Cercenasco_municipio.jpg"
  },
  {
    "nome_comune": "Ceres",
    "codice_provincia": "TO",
    "lat": 45.3130672,
    "lon": 7.3893349,
    "superficie_kmq": 27.9603,
    "flag_capoluogo": "NO",
    "pageviews": 1222,
    "provincia": "Torino",
    "regione": "Piemonte",
    "abitanti": null,
    "immagine": null
  },
  {
    "nome_comune": "Ceresole Reale",
    "codice_provincia": "TO",
    "lat": 45.4325151,
    "lon": 7.2325365,
    "superficie_kmq": 100.0257,
    "flag_capoluogo": "NO",
    "pageviews": 26146,
    "provincia": "Torino",
    "regione": "Piemonte",
    "abitanti": 147,
    "immagine": "https://upload.wikimedia.org/wikipedia/it/4/45/Ceresole_Reale-Gonfalone.png"
  },
  {
    "nome_comune": "Cesana Torinese",
    "codice_provincia": "TO",
    "lat": 44.9524243,
    "lon": 6.794207,
    "superficie_kmq": 121.8391,
    "flag_capoluogo": "NO",
    "pageviews": 17490,
    "provincia": "Torino",
    "regione": "Piemonte",
    "abitanti": 893,
    "immagine": "https://upload.wikimedia.org/wikipedia/it/f/f7/Cesana_Torinese-Gonfalone.png"
  },
  {
    "nome_comune": "Chialamberto",
    "codice_provincia": "TO",
    "lat": 45.3628552,
    "lon": 7.34588,
    "superficie_kmq": 35.4132,
    "flag_capoluogo": "NO",
    "pageviews": 4837,
    "provincia": "Torino",
    "regione": "Piemonte",
    "abitanti": 334,
    "immagine": "https://upload.wikimedia.org/wikipedia/commons/thumb/8/8f/VistaChiala.jpg/330px-VistaChiala.jpg"
  },
  {
    "nome_comune": "Chianocco",
    "codice_provincia": "TO",
    "lat": 45.148593,
    "lon": 7.1695443,
    "superficie_kmq": 18.7972,
    "flag_capoluogo": "NO",
    "pageviews": 3000,
    "provincia": "Torino",
    "regione": "Piemonte",
    "abitanti": 1498,
    "immagine": "https://upload.wikimedia.org/wikipedia/commons/thumb/f/fe/Castello_di_Chianocco.jpg/330px-Castello_di_Chianocco.jpg"
  },
  {
    "nome_comune": "Chiaverano",
    "codice_provincia": "TO",
    "lat": 45.5003948,
    "lon": 7.9023271,
    "superficie_kmq": 11.7809,
    "flag_capoluogo": "NO",
    "pageviews": 3014,
    "provincia": "Torino",
    "regione": "Piemonte",
    "abitanti": 1968,
    "immagine": "https://upload.wikimedia.org/wikipedia/commons/thumb/3/37/Chiaverano_Campanile_al_tramonto.JPG/330px-Chiaverano_Campanile_al_tramonto.JPG"
  },
  {
    "nome_comune": "Chieri",
    "codice_provincia": "TO",
    "lat": 45.0131646,
    "lon": 7.8210215,
    "superficie_kmq": 54.2119,
    "flag_capoluogo": "NO",
    "pageviews": 40199,
    "provincia": "Torino",
    "regione": "Piemonte",
    "abitanti": 35830,
    "immagine": "https://upload.wikimedia.org/wikipedia/commons/thumb/c/ce/Flag_of_Chieri.png/330px-Flag_of_Chieri.png"
  },
  {
    "nome_comune": "Chiesanuova",
    "codice_provincia": "TO",
    "lat": 45.4174247,
    "lon": 7.6568511,
    "superficie_kmq": 4.2282,
    "flag_capoluogo": "NO",
    "pageviews": 227,
    "provincia": "Torino",
    "regione": "Piemonte",
    "abitanti": null,
    "immagine": null
  },
  {
    "nome_comune": "Chiomonte",
    "codice_provincia": "TO",
    "lat": 45.119667,
    "lon": 6.9840367,
    "superficie_kmq": 26.8478,
    "flag_capoluogo": "NO",
    "pageviews": 9076,
    "provincia": "Torino",
    "regione": "Piemonte",
    "abitanti": 846,
    "immagine": "https://upload.wikimedia.org/wikipedia/it/thumb/2/20/Chiomonte-Gonfalone.png/330px-Chiomonte-Gonfalone.png"
  },
  {
    "nome_comune": "Chiusa di San Michele",
    "codice_provincia": "TO",
    "lat": 45.1015733,
    "lon": 7.3264647,
    "superficie_kmq": 5.8307,
    "flag_capoluogo": "NO",
    "pageviews": 5997,
    "provincia": "Torino",
    "regione": "Piemonte",
    "abitanti": 1509,
    "immagine": "https://upload.wikimedia.org/wikipedia/commons/thumb/1/16/Italy_provincial_location_map_2016.svg/330px-Italy_provincial_location_map_2016.svg.png"
  },
  {
    "nome_comune": "Chivasso",
    "codice_provincia": "TO",
    "lat": 45.190849299999996,
    "lon": 7.8871226,
    "superficie_kmq": 50.8683,
    "flag_capoluogo": "NO",
    "pageviews": 36060,
    "provincia": "Torino",
    "regione": "Piemonte",
    "abitanti": 26012,
    "immagine": "https://upload.wikimedia.org/wikipedia/commons/thumb/3/3a/Duomo_di_Chivasso_Italia_5.jpg/330px-Duomo_di_Chivasso_Italia_5.jpg"
  },
  {
    "nome_comune": "Ciconio",
    "codice_provincia": "TO",
    "lat": 45.3303533,
    "lon": 7.7599853,
    "superficie_kmq": 3.0449,
    "flag_capoluogo": "NO",
    "pageviews": 1013,
    "provincia": "Torino",
    "regione": "Piemonte",
    "abitanti": 358,
    "immagine": "https://upload.wikimedia.org/wikipedia/commons/thumb/1/16/Italy_provincial_location_map_2016.svg/330px-Italy_provincial_location_map_2016.svg.png"
  },
  {
    "nome_comune": "Cintano",
    "codice_provincia": "TO",
    "lat": 45.427971,
    "lon": 7.6867646,
    "superficie_kmq": 5.0355,
    "flag_capoluogo": "NO",
    "pageviews": 1891,
    "provincia": "Torino",
    "regione": "Piemonte",
    "abitanti": 230,
    "immagine": "https://upload.wikimedia.org/wikipedia/commons/thumb/d/d3/Cintano_chiesa_parrocchiale.jpg/330px-Cintano_chiesa_parrocchiale.jpg"
  },
  {
    "nome_comune": "Cinzano",
    "codice_provincia": "TO",
    "lat": 45.093875,
    "lon": 7.9210939,
    "superficie_kmq": 6.1823,
    "flag_capoluogo": "NO",
    "pageviews": 4351,
    "provincia": "Torino",
    "regione": "Piemonte",
    "abitanti": 338,
    "immagine": "https://upload.wikimedia.org/wikipedia/commons/thumb/4/4a/Castillo_Peyretti.jpg/330px-Castillo_Peyretti.jpg"
  },
  {
    "nome_comune": "Ciriè",
    "codice_provincia": "TO",
    "lat": 45.2317279,
    "lon": 7.6045879,
    "superficie_kmq": 17.843,
    "flag_capoluogo": "NO",
    "pageviews": 207,
    "provincia": "Torino",
    "regione": "Piemonte",
    "abitanti": null,
    "immagine": "https://upload.wikimedia.org/wikipedia/commons/thumb/1/17/Chiesa_di_San_Martino_2_%28Ciri%C3%A8%29.jpg/330px-Chiesa_di_San_Martino_2_%28Ciri%C3%A8%29.jpg"
  },
  {
    "nome_comune": "Claviere",
    "codice_provincia": "TO",
    "lat": 44.9385626,
    "lon": 6.7493542,
    "superficie_kmq": 2.6844,
    "flag_capoluogo": "NO",
    "pageviews": 15093,
    "provincia": "Torino",
    "regione": "Piemonte",
    "abitanti": 200,
    "immagine": "https://upload.wikimedia.org/wikipedia/commons/thumb/7/7b/Chiesa_Parrocchiale_di_Claviere.JPG/330px-Chiesa_Parrocchiale_di_Claviere.JPG"
  },
  {
    "nome_comune": "Coassolo Torinese",
    "codice_provincia": "TO",
    "lat": 45.3010009,
    "lon": 7.4614939,
    "superficie_kmq": 27.9457,
    "flag_capoluogo": "NO",
    "pageviews": 4632,
    "provincia": "Torino",
    "regione": "Piemonte",
    "abitanti": 1475,
    "immagine": "https://upload.wikimedia.org/wikipedia/commons/thumb/5/5e/Coassolo_pan_da_monastero_di_lanzo.jpg/330px-Coassolo_pan_da_monastero_di_lanzo.jpg"
  },
  {
    "nome_comune": "Coazze",
    "codice_provincia": "TO",
    "lat": 45.0514171,
    "lon": 7.2947246,
    "superficie_kmq": 56.0503,
    "flag_capoluogo": "NO",
    "pageviews": 8527,
    "provincia": "Torino",
    "regione": "Piemonte",
    "abitanti": 3360,
    "immagine": "https://upload.wikimedia.org/wikipedia/commons/thumb/d/d7/Coazze_-_Chiesa_di_Santa_Maria_del_Pino_laterale.jpg/330px-Coazze_-_Chiesa_di_Santa_Maria_del_Pino_laterale.jpg"
  },
  {
    "nome_comune": "Collegno",
    "codice_provincia": "TO",
    "lat": 45.0774023,
    "lon": 7.5691576,
    "superficie_kmq": 18.1874,
    "flag_capoluogo": "NO",
    "pageviews": 22570,
    "provincia": "Torino",
    "regione": "Piemonte",
    "abitanti": 47553,
    "immagine": "https://upload.wikimedia.org/wikipedia/commons/thumb/8/8a/Lavanderia_a_Vapore.JPG/330px-Lavanderia_a_Vapore.JPG"
  },
  {
    "nome_comune": "Colleretto Castelnuovo",
    "codice_provincia": "TO",
    "lat": 45.4214414,
    "lon": 7.6789845,
    "superficie_kmq": 6.3067,
    "flag_capoluogo": "NO",
    "pageviews": 1672,
    "provincia": "Torino",
    "regione": "Piemonte",
    "abitanti": 344,
    "immagine": "https://upload.wikimedia.org/wikipedia/commons/thumb/d/d4/Colleretto_Castelnuovo_panorama_sullo_sfondo_il_santuario_di_Santa_Elisabetta.jpg/330px-Colleretto_Castelnuovo_panorama_sullo_sfondo_il_santuario_di_Santa_Elisabetta.jpg"
  },
  {
    "nome_comune": "Colleretto Giacosa",
    "codice_provincia": "TO",
    "lat": 45.4328712,
    "lon": 7.799995,
    "superficie_kmq": 4.6628,
    "flag_capoluogo": "NO",
    "pageviews": 4061,
    "provincia": "Torino",
    "regione": "Piemonte",
    "abitanti": 567,
    "immagine": "https://upload.wikimedia.org/wikipedia/commons/thumb/c/ca/Colleretto_Giacosa_Peasaggio_02.JPG/330px-Colleretto_Giacosa_Peasaggio_02.JPG"
  },
  {
    "nome_comune": "Condove",
    "codice_provincia": "TO",
    "lat": 45.1170113,
    "lon": 7.3105314,
    "superficie_kmq": 70.9524,
    "flag_capoluogo": "NO",
    "pageviews": 6961,
    "provincia": "Torino",
    "regione": "Piemonte",
    "abitanti": 4416,
    "immagine": "https://upload.wikimedia.org/wikipedia/it/5/50/Condove-Gonfalone.png"
  },
  {
    "nome_comune": "Corio",
    "codice_provincia": "TO",
    "lat": 45.3127335,
    "lon": 7.532602,
    "superficie_kmq": 41.6073,
    "flag_capoluogo": "NO",
    "pageviews": 8528,
    "provincia": "Torino",
    "regione": "Piemonte",
    "abitanti": 3097,
    "immagine": "https://upload.wikimedia.org/wikipedia/it/a/a9/Corio-Gonfalone.png"
  },
  {
    "nome_comune": "Cossano Canavese",
    "codice_provincia": "TO",
    "lat": 45.3883116,
    "lon": 7.9934226,
    "superficie_kmq": 3.1156,
    "flag_capoluogo": "NO",
    "pageviews": 1470,
    "provincia": "Torino",
    "regione": "Piemonte",
    "abitanti": 413,
    "immagine": "https://upload.wikimedia.org/wikipedia/commons/thumb/1/1a/Cossano_canavese_panorama.jpg/330px-Cossano_canavese_panorama.jpg"
  },
  {
    "nome_comune": "Cuceglio",
    "codice_provincia": "TO",
    "lat": 45.3587593,
    "lon": 7.814872,
    "superficie_kmq": 7.0072,
    "flag_capoluogo": "NO",
    "pageviews": 2173,
    "provincia": "Torino",
    "regione": "Piemonte",
    "abitanti": 912,
    "immagine": "https://upload.wikimedia.org/wikipedia/commons/thumb/8/80/Cuceglio_Panorama.jpg/330px-Cuceglio_Panorama.jpg"
  },
  {
    "nome_comune": "Cumiana",
    "codice_provincia": "TO",
    "lat": 44.9827474,
    "lon": 7.3741814,
    "superficie_kmq": 60.8053,
    "flag_capoluogo": "NO",
    "pageviews": 11171,
    "provincia": "Torino",
    "regione": "Piemonte",
    "abitanti": 7789,
    "immagine": "https://upload.wikimedia.org/wikipedia/it/thumb/3/3d/Cumiana-Gonfalone.png/330px-Cumiana-Gonfalone.png"
  },
  {
    "nome_comune": "Cuorgnè",
    "codice_provincia": "TO",
    "lat": 45.3913262,
    "lon": 7.648696,
    "superficie_kmq": 19.1172,
    "flag_capoluogo": "NO",
    "pageviews": 14242,
    "provincia": "Torino",
    "regione": "Piemonte",
    "abitanti": 9540,
    "immagine": "https://upload.wikimedia.org/wikipedia/it/b/bc/Cuorgn%C3%A8-Gonfalone.png"
  },
  {
    "nome_comune": "Druento",
    "codice_provincia": "TO",
    "lat": 45.1342731,
    "lon": 7.5762577,
    "superficie_kmq": 27.518,
    "flag_capoluogo": "NO",
    "pageviews": 11535,
    "provincia": "Torino",
    "regione": "Piemonte",
    "abitanti": 8962,
    "immagine": "https://upload.wikimedia.org/wikipedia/commons/thumb/4/42/ComuneDruento.jpg/330px-ComuneDruento.jpg"
  },
  {
    "nome_comune": "Exilles",
    "codice_provincia": "TO",
    "lat": 45.0974883,
    "lon": 6.9296051,
    "superficie_kmq": 46.5827,
    "flag_capoluogo": "NO",
    "pageviews": 9704,
    "provincia": "Torino",
    "regione": "Piemonte",
    "abitanti": 237,
    "immagine": "https://upload.wikimedia.org/wikipedia/commons/thumb/e/e2/ExillesForte.JPG/330px-ExillesForte.JPG"
  },
  {
    "nome_comune": "Favria",
    "codice_provincia": "TO",
    "lat": 45.332876,
    "lon": 7.687937,
    "superficie_kmq": 14.9446,
    "flag_capoluogo": "NO",
    "pageviews": 4376,
    "provincia": "Torino",
    "regione": "Piemonte",
    "abitanti": 4970,
    "immagine": "https://upload.wikimedia.org/wikipedia/commons/thumb/9/92/Favria-Bandiera_2.svg/330px-Favria-Bandiera_2.svg.png"
  },
  {
    "nome_comune": "Feletto",
    "codice_provincia": "TO",
    "lat": 45.3054802,
    "lon": 7.7471143,
    "superficie_kmq": 8.0921,
    "flag_capoluogo": "NO",
    "pageviews": 5765,
    "provincia": "Torino",
    "regione": "Piemonte",
    "abitanti": 2156,
    "immagine": "https://upload.wikimedia.org/wikipedia/commons/thumb/e/e6/Feletto1.jpeg/330px-Feletto1.jpeg"
  },
  {
    "nome_comune": "Fenestrelle",
    "codice_provincia": "TO",
    "lat": 45.0339532,
    "lon": 7.051734,
    "superficie_kmq": 49.1852,
    "flag_capoluogo": "NO",
    "pageviews": 19857,
    "provincia": "Torino",
    "regione": "Piemonte",
    "abitanti": 467,
    "immagine": "https://upload.wikimedia.org/wikipedia/commons/thumb/d/d9/Fenestrelle0002.JPG/330px-Fenestrelle0002.JPG"
  },
  {
    "nome_comune": "Fiano",
    "codice_provincia": "TO",
    "lat": 45.2181318,
    "lon": 7.519751,
    "superficie_kmq": 11.9079,
    "flag_capoluogo": "NO",
    "pageviews": 4150,
    "provincia": "Torino",
    "regione": "Piemonte",
    "abitanti": 2626,
    "immagine": "https://upload.wikimedia.org/wikipedia/commons/thumb/4/49/Chiesa_Parrocchiale_Fiano.JPG/330px-Chiesa_Parrocchiale_Fiano.JPG"
  },
  {
    "nome_comune": "Fiorano Canavese",
    "codice_provincia": "TO",
    "lat": 45.4675874,
    "lon": 7.8289681,
    "superficie_kmq": 4.4557,
    "flag_capoluogo": "NO",
    "pageviews": 1590,
    "provincia": "Torino",
    "regione": "Piemonte",
    "abitanti": 735,
    "immagine": "https://upload.wikimedia.org/wikipedia/commons/thumb/a/ad/Fiorano_Canavese_panorama.jpg/330px-Fiorano_Canavese_panorama.jpg"
  },
  {
    "nome_comune": "Foglizzo",
    "codice_provincia": "TO",
    "lat": 45.2720467,
    "lon": 7.8231524,
    "superficie_kmq": 15.6107,
    "flag_capoluogo": "NO",
    "pageviews": 3295,
    "provincia": "Torino",
    "regione": "Piemonte",
    "abitanti": 2268,
    "immagine": "https://upload.wikimedia.org/wikipedia/commons/thumb/6/66/Foglizzo_santa_maria_maddalena.jpg/330px-Foglizzo_santa_maria_maddalena.jpg"
  },
  {
    "nome_comune": "Forno Canavese",
    "codice_provincia": "TO",
    "lat": 45.3467729,
    "lon": 7.5867669,
    "superficie_kmq": 16.5492,
    "flag_capoluogo": "NO",
    "pageviews": 4145,
    "provincia": "Torino",
    "regione": "Piemonte",
    "abitanti": 3170,
    "immagine": "https://upload.wikimedia.org/wikipedia/it/d/d6/Forno_Canavese-Gonfalone.png"
  },
  {
    "nome_comune": "Frassinetto",
    "codice_provincia": "TO",
    "lat": 45.4360589,
    "lon": 7.6057321,
    "superficie_kmq": 24.8678,
    "flag_capoluogo": "NO",
    "pageviews": 5091,
    "provincia": "Torino",
    "regione": "Piemonte",
    "abitanti": 274,
    "immagine": "https://upload.wikimedia.org/wikipedia/commons/thumb/6/64/S_Bartolomeo_Frassinetto.jpg/330px-S_Bartolomeo_Frassinetto.jpg"
  },
  {
    "nome_comune": "Front",
    "codice_provincia": "TO",
    "lat": 45.2794926,
    "lon": 7.6657259,
    "superficie_kmq": 10.9346,
    "flag_capoluogo": "NO",
    "pageviews": 3113,
    "provincia": "Torino",
    "regione": "Piemonte",
    "abitanti": 1597,
    "immagine": "https://upload.wikimedia.org/wikipedia/it/c/cc/Front-Gonfalone.png"
  },
  {
    "nome_comune": "Frossasco",
    "codice_provincia": "TO",
    "lat": 44.9334809,
    "lon": 7.3508656,
    "superficie_kmq": 20.2477,
    "flag_capoluogo": "NO",
    "pageviews": 3927,
    "provincia": "Torino",
    "regione": "Piemonte",
    "abitanti": 2854,
    "immagine": "https://upload.wikimedia.org/wikipedia/it/3/38/Frossasco-Gonfalone.png"
  },
  {
    "nome_comune": "Garzigliana",
    "codice_provincia": "TO",
    "lat": 44.8367675,
    "lon": 7.3747354,
    "superficie_kmq": 7.1974,
    "flag_capoluogo": "NO",
    "pageviews": 1722,
    "provincia": "Torino",
    "regione": "Piemonte",
    "abitanti": 553,
    "immagine": "https://upload.wikimedia.org/wikipedia/commons/thumb/b/ba/Santuario_di_Montebruno_001.jpg/330px-Santuario_di_Montebruno_001.jpg"
  },
  {
    "nome_comune": "Gassino Torinese",
    "codice_provincia": "TO",
    "lat": 45.1274618,
    "lon": 7.8246237,
    "superficie_kmq": 20.0507,
    "flag_capoluogo": "NO",
    "pageviews": 6765,
    "provincia": "Torino",
    "regione": "Piemonte",
    "abitanti": 9218,
    "immagine": "https://upload.wikimedia.org/wikipedia/commons/thumb/1/16/Italy_provincial_location_map_2016.svg/330px-Italy_provincial_location_map_2016.svg.png"
  },
  {
    "nome_comune": "GermagNAo",
    "codice_provincia": "TO",
    "lat": 45.2620584,
    "lon": 7.4666277,
    "superficie_kmq": 14.2223,
    "flag_capoluogo": "NO",
    "pageviews": 3053,
    "provincia": "Torino",
    "regione": "Piemonte",
    "abitanti": 1130,
    "immagine": "https://upload.wikimedia.org/wikipedia/commons/thumb/d/de/GermagNAo_veduta.jpg/330px-GermagNAo_veduta.jpg"
  },
  {
    "nome_comune": "Giaglione",
    "codice_provincia": "TO",
    "lat": 45.1397024,
    "lon": 7.0141191,
    "superficie_kmq": 33.6589,
    "flag_capoluogo": "NO",
    "pageviews": 4074,
    "provincia": "Torino",
    "regione": "Piemonte",
    "abitanti": 593,
    "immagine": "https://upload.wikimedia.org/wikipedia/it/thumb/3/30/Giaglione-Gonfalone.png/330px-Giaglione-Gonfalone.png"
  },
  {
    "nome_comune": "Giaveno",
    "codice_provincia": "TO",
    "lat": 45.0447344,
    "lon": 7.3530799,
    "superficie_kmq": 71.9214,
    "flag_capoluogo": "NO",
    "pageviews": 24692,
    "provincia": "Torino",
    "regione": "Piemonte",
    "abitanti": 16328,
    "immagine": "https://upload.wikimedia.org/wikipedia/commons/thumb/1/16/Giaveno_-_Comune_di_Giaveno.jpg/330px-Giaveno_-_Comune_di_Giaveno.jpg"
  },
  {
    "nome_comune": "Givoletto",
    "codice_provincia": "TO",
    "lat": 45.1588163,
    "lon": 7.4968477,
    "superficie_kmq": 13.1063,
    "flag_capoluogo": "NO",
    "pageviews": 4038,
    "provincia": "Torino",
    "regione": "Piemonte",
    "abitanti": 4065,
    "immagine": "https://upload.wikimedia.org/wikipedia/commons/thumb/4/46/Chiesa_Parrocchiale_San_Secondo.JPG/330px-Chiesa_Parrocchiale_San_Secondo.JPG"
  },
  {
    "nome_comune": "Gravere",
    "codice_provincia": "TO",
    "lat": 45.1239955,
    "lon": 7.0209034,
    "superficie_kmq": 18.9759,
    "flag_capoluogo": "NO",
    "pageviews": 4094,
    "provincia": "Torino",
    "regione": "Piemonte",
    "abitanti": 690,
    "immagine": "https://upload.wikimedia.org/wikipedia/it/thumb/8/80/Gravere-Gonfalone.png/330px-Gravere-Gonfalone.png"
  },
  {
    "nome_comune": "Groscavallo",
    "codice_provincia": "TO",
    "lat": 45.3688981,
    "lon": 7.2823768,
    "superficie_kmq": 92.2074,
    "flag_capoluogo": "NO",
    "pageviews": 6400,
    "provincia": "Torino",
    "regione": "Piemonte",
    "abitanti": 187,
    "immagine": "https://upload.wikimedia.org/wikipedia/commons/thumb/4/47/Groscavallo.jpg/330px-Groscavallo.jpg"
  },
  {
    "nome_comune": "Grosso",
    "codice_provincia": "TO",
    "lat": 45.2578068,
    "lon": 7.558266,
    "superficie_kmq": 4.3392,
    "flag_capoluogo": "NO",
    "pageviews": 437,
    "provincia": "Torino",
    "regione": "Piemonte",
    "abitanti": null,
    "immagine": null
  },
  {
    "nome_comune": "Grugliasco",
    "codice_provincia": "TO",
    "lat": 45.0619938,
    "lon": 7.5777858,
    "superficie_kmq": 13.0865,
    "flag_capoluogo": "NO",
    "pageviews": 70301,
    "provincia": "Torino",
    "regione": "Piemonte",
    "abitanti": 36381,
    "immagine": "https://upload.wikimedia.org/wikipedia/commons/thumb/4/49/GruliascoCentre.jpg/330px-GruliascoCentre.jpg"
  },
  {
    "nome_comune": "Ingria",
    "codice_provincia": "TO",
    "lat": 45.4661534,
    "lon": 7.5708119,
    "superficie_kmq": 15.2309,
    "flag_capoluogo": "NO",
    "pageviews": 232,
    "provincia": "Torino",
    "regione": "Piemonte",
    "abitanti": null,
    "immagine": null
  },
  {
    "nome_comune": "Inverso Pinasca",
    "codice_provincia": "TO",
    "lat": 44.9471112,
    "lon": 7.2159869,
    "superficie_kmq": 8.0552,
    "flag_capoluogo": "NO",
    "pageviews": 1886,
    "provincia": "Torino",
    "regione": "Piemonte",
    "abitanti": 673,
    "immagine": "https://upload.wikimedia.org/wikipedia/commons/thumb/6/6f/13_03_15_inverso_pinasca_municipio.jpg/330px-13_03_15_inverso_pinasca_municipio.jpg"
  },
  {
    "nome_comune": "Isolabella",
    "codice_provincia": "TO",
    "lat": 44.9066201,
    "lon": 7.9093993,
    "superficie_kmq": 4.8314,
    "flag_capoluogo": "NO",
    "pageviews": 76,
    "provincia": "Torino",
    "regione": "Piemonte",
    "abitanti": null,
    "immagine": null
  },
  {
    "nome_comune": "Issiglio",
    "codice_provincia": "TO",
    "lat": 45.4468372,
    "lon": 7.7540952,
    "superficie_kmq": 5.4014,
    "flag_capoluogo": "NO",
    "pageviews": 1890,
    "provincia": "Torino",
    "regione": "Piemonte",
    "abitanti": 436,
    "immagine": "https://upload.wikimedia.org/wikipedia/commons/thumb/5/50/Ponte_sul_Savenca%2C_Issiglio%2C_Piemonte.jpg/330px-Ponte_sul_Savenca%2C_Issiglio%2C_Piemonte.jpg"
  },
  {
    "nome_comune": "Ivrea",
    "codice_provincia": "TO",
    "lat": 45.4662336,
    "lon": 7.8759117,
    "superficie_kmq": 30.5098,
    "flag_capoluogo": "NO",
    "pageviews": 96711,
    "provincia": "Torino",
    "regione": "Piemonte",
    "abitanti": 22523,
    "immagine": "https://upload.wikimedia.org/wikipedia/commons/thumb/e/ec/Ivrea-Bandiera.svg/330px-Ivrea-Bandiera.svg.png"
  },
  {
    "nome_comune": "La Cassa",
    "codice_provincia": "TO",
    "lat": 45.181817,
    "lon": 7.5191053,
    "superficie_kmq": 11.8554,
    "flag_capoluogo": "NO",
    "pageviews": 3433,
    "provincia": "Torino",
    "regione": "Piemonte",
    "abitanti": 1733,
    "immagine": "https://upload.wikimedia.org/wikipedia/commons/thumb/9/99/La_cassa_da_monte_bernard.jpg/330px-La_cassa_da_monte_bernard.jpg"
  },
  {
    "nome_comune": "La Loggia",
    "codice_provincia": "TO",
    "lat": 44.9566817,
    "lon": 7.6676999,
    "superficie_kmq": 13.0895,
    "flag_capoluogo": "NO",
    "pageviews": 6259,
    "provincia": "Torino",
    "regione": "Piemonte",
    "abitanti": 8654,
    "immagine": "https://upload.wikimedia.org/wikipedia/commons/thumb/9/9e/Villa_Carpeneto%2C_La_Loggia%2C_Italia.jpg/330px-Villa_Carpeneto%2C_La_Loggia%2C_Italia.jpg"
  },
  {
    "nome_comune": "Lanzo Torinese",
    "codice_provincia": "TO",
    "lat": 45.2722552,
    "lon": 7.4765958,
    "superficie_kmq": 10.3843,
    "flag_capoluogo": "NO",
    "pageviews": 13142,
    "provincia": "Torino",
    "regione": "Piemonte",
    "abitanti": 5031,
    "immagine": "https://upload.wikimedia.org/wikipedia/it/b/bd/Lanzo_Torinese-Gonfalone.png"
  },
  {
    "nome_comune": "Lauriano",
    "codice_provincia": "TO",
    "lat": 45.1584257,
    "lon": 7.9915852,
    "superficie_kmq": 14.0697,
    "flag_capoluogo": "NO",
    "pageviews": 5664,
    "provincia": "Torino",
    "regione": "Piemonte",
    "abitanti": 1381,
    "immagine": "https://upload.wikimedia.org/wikipedia/commons/thumb/9/9d/Lauriano.jpg/330px-Lauriano.jpg"
  },
  {
    "nome_comune": "Leini",
    "codice_provincia": "TO",
    "lat": 45.1839595,
    "lon": 7.7149873,
    "superficie_kmq": 31.8759,
    "flag_capoluogo": "NO",
    "pageviews": 13325,
    "provincia": "Torino",
    "regione": "Piemonte",
    "abitanti": 16249,
    "immagine": "https://upload.wikimedia.org/wikipedia/commons/thumb/3/3f/Chiesa_di_San_Giovanni_Battista%2C_campanile_%28Leini%29.jpg/330px-Chiesa_di_San_Giovanni_Battista%2C_campanile_%28Leini%29.jpg"
  },
  {
    "nome_comune": "Lemie",
    "codice_provincia": "TO",
    "lat": 45.2286823,
    "lon": 7.2927537,
    "superficie_kmq": 45.4474,
    "flag_capoluogo": "NO",
    "pageviews": 3377,
    "provincia": "Torino",
    "regione": "Piemonte",
    "abitanti": 149,
    "immagine": "https://upload.wikimedia.org/wikipedia/it/f/f0/Lemie-Gonfalone.png"
  },
  {
    "nome_comune": "Lessolo",
    "codice_provincia": "TO",
    "lat": 45.4757766,
    "lon": 7.8140443,
    "superficie_kmq": 7.8232,
    "flag_capoluogo": "NO",
    "pageviews": 2529,
    "provincia": "Torino",
    "regione": "Piemonte",
    "abitanti": 1763,
    "immagine": "https://upload.wikimedia.org/wikipedia/commons/thumb/0/08/Lessolo_Castello_Cagnis_01.JPG/330px-Lessolo_Castello_Cagnis_01.JPG"
  },
  {
    "nome_comune": "Levone",
    "codice_provincia": "TO",
    "lat": 45.3181626,
    "lon": 7.6059193,
    "superficie_kmq": 5.3962,
    "flag_capoluogo": "NO",
    "pageviews": 2495,
    "provincia": "Torino",
    "regione": "Piemonte",
    "abitanti": 463,
    "immagine": "https://upload.wikimedia.org/wikipedia/commons/thumb/b/b2/Levone_Ricetto.jpg/330px-Levone_Ricetto.jpg"
  },
  {
    "nome_comune": "Locana",
    "codice_provincia": "TO",
    "lat": 45.4169171,
    "lon": 7.4617755,
    "superficie_kmq": 132.2437,
    "flag_capoluogo": "NO",
    "pageviews": 8001,
    "provincia": "Torino",
    "regione": "Piemonte",
    "abitanti": 1296,
    "immagine": "https://upload.wikimedia.org/wikipedia/commons/thumb/6/6e/Locana.jpg/330px-Locana.jpg"
  },
  {
    "nome_comune": "Lombardore",
    "codice_provincia": "TO",
    "lat": 45.2356416,
    "lon": 7.7362896,
    "superficie_kmq": 12.6186,
    "flag_capoluogo": "NO",
    "pageviews": 2874,
    "provincia": "Torino",
    "regione": "Piemonte",
    "abitanti": 1719,
    "immagine": "https://upload.wikimedia.org/wikipedia/commons/thumb/5/58/Parrocchiale_S.Agapito.JPG/330px-Parrocchiale_S.Agapito.JPG"
  },
  {
    "nome_comune": "Lombriasco",
    "codice_provincia": "TO",
    "lat": 44.8416798,
    "lon": 7.6359489,
    "superficie_kmq": 7.2857,
    "flag_capoluogo": "NO",
    "pageviews": 2090,
    "provincia": "Torino",
    "regione": "Piemonte",
    "abitanti": 1071,
    "immagine": "https://upload.wikimedia.org/wikipedia/it/thumb/3/39/Lombriasco-Gonfalone.png/330px-Lombriasco-Gonfalone.png"
  },
  {
    "nome_comune": "Loranzè",
    "codice_provincia": "TO",
    "lat": 45.4413818,
    "lon": 7.8110524,
    "superficie_kmq": 4.2485,
    "flag_capoluogo": "NO",
    "pageviews": 1450,
    "provincia": "Torino",
    "regione": "Piemonte",
    "abitanti": 1154,
    "immagine": "https://upload.wikimedia.org/wikipedia/commons/thumb/c/cd/Loranz%C3%A8_Panorama.jpg/330px-Loranz%C3%A8_Panorama.jpg"
  },
  {
    "nome_comune": "Luserna San Giovanni",
    "codice_provincia": "TO",
    "lat": 44.8144535,
    "lon": 7.2460158,
    "superficie_kmq": 17.6374,
    "flag_capoluogo": "NO",
    "pageviews": 36797,
    "provincia": "Torino",
    "regione": "Piemonte",
    "abitanti": 7148,
    "immagine": "https://upload.wikimedia.org/wikipedia/commons/thumb/5/5e/Luserna_pan_da_rocca_berra.jpg/330px-Luserna_pan_da_rocca_berra.jpg"
  },
  {
    "nome_comune": "Lusernetta",
    "codice_provincia": "TO",
    "lat": 44.8026038,
    "lon": 7.2497624,
    "superficie_kmq": 7.1318,
    "flag_capoluogo": "NO",
    "pageviews": 1714,
    "provincia": "Torino",
    "regione": "Piemonte",
    "abitanti": 501,
    "immagine": "https://upload.wikimedia.org/wikipedia/commons/thumb/0/00/Lusernetta_panorama.jpg/330px-Lusernetta_panorama.jpg"
  },
  {
    "nome_comune": "Lusigliè",
    "codice_provincia": "TO",
    "lat": 45.3185725,
    "lon": 7.7664656,
    "superficie_kmq": 5.151,
    "flag_capoluogo": "NO",
    "pageviews": 1679,
    "provincia": "Torino",
    "regione": "Piemonte",
    "abitanti": 549,
    "immagine": "https://upload.wikimedia.org/wikipedia/commons/thumb/1/18/Lusigli%C3%A8_panorama.jpg/330px-Lusigli%C3%A8_panorama.jpg"
  },
  {
    "nome_comune": "Macello",
    "codice_provincia": "TO",
    "lat": 44.8511813,
    "lon": 7.4008373,
    "superficie_kmq": 14.3349,
    "flag_capoluogo": "NO",
    "pageviews": 261,
    "provincia": "Torino",
    "regione": "Piemonte",
    "abitanti": null,
    "immagine": null
  },
  {
    "nome_comune": "Maglione",
    "codice_provincia": "TO",
    "lat": 45.3476727,
    "lon": 8.0117232,
    "superficie_kmq": 6.3965,
    "flag_capoluogo": "NO",
    "pageviews": 289,
    "provincia": "Torino",
    "regione": "Piemonte",
    "abitanti": null,
    "immagine": null
  },
  {
    "nome_comune": "Marentino",
    "codice_provincia": "TO",
    "lat": 45.0580474,
    "lon": 7.8733109,
    "superficie_kmq": 11.1559,
    "flag_capoluogo": "NO",
    "pageviews": 4021,
    "provincia": "Torino",
    "regione": "Piemonte",
    "abitanti": 1257,
    "immagine": "https://upload.wikimedia.org/wikipedia/commons/thumb/4/43/Marentino_panorama.jpg/330px-Marentino_panorama.jpg"
  },
  {
    "nome_comune": "Massello",
    "codice_provincia": "TO",
    "lat": 44.9585084,
    "lon": 7.0570144,
    "superficie_kmq": 37.9355,
    "flag_capoluogo": "NO",
    "pageviews": 120,
    "provincia": "Torino",
    "regione": "Piemonte",
    "abitanti": null,
    "immagine": null
  },
  {
    "nome_comune": "Mathi",
    "codice_provincia": "TO",
    "lat": 45.2567508,
    "lon": 7.5411799,
    "superficie_kmq": 7.213,
    "flag_capoluogo": "NO",
    "pageviews": 5286,
    "provincia": "Torino",
    "regione": "Piemonte",
    "abitanti": 3670,
    "immagine": "https://upload.wikimedia.org/wikipedia/commons/thumb/e/e0/Chiesa_Mathi.jpg/330px-Chiesa_Mathi.jpg"
  },
  {
    "nome_comune": "Mattie",
    "codice_provincia": "TO",
    "lat": 45.1188218,
    "lon": 7.1120177,
    "superficie_kmq": 28.2778,
    "flag_capoluogo": "NO",
    "pageviews": 5133,
    "provincia": "Torino",
    "regione": "Piemonte",
    "abitanti": 677,
    "immagine": "https://upload.wikimedia.org/wikipedia/commons/thumb/0/05/Santi_Cornelio_e_Cipriano%2C_Chiesa_parrocchiale%2C_Mattie%2C_Italy.jpg/330px-Santi_Cornelio_e_Cipriano%2C_Chiesa_parrocchiale%2C_Mattie%2C_Italy.jpg"
  },
  {
    "nome_comune": "Mazzè",
    "codice_provincia": "TO",
    "lat": 45.2985603,
    "lon": 7.9368307,
    "superficie_kmq": 27.0427,
    "flag_capoluogo": "NO",
    "pageviews": 5505,
    "provincia": "Torino",
    "regione": "Piemonte",
    "abitanti": 4281,
    "immagine": "https://upload.wikimedia.org/wikipedia/commons/thumb/7/73/Mazz%C3%A8_da_bric_valsorda.jpg/330px-Mazz%C3%A8_da_bric_valsorda.jpg"
  },
  {
    "nome_comune": "Meana di Susa",
    "codice_provincia": "TO",
    "lat": 45.1210435,
    "lon": 7.0684893,
    "superficie_kmq": 16.5905,
    "flag_capoluogo": "NO",
    "pageviews": 4395,
    "provincia": "Torino",
    "regione": "Piemonte",
    "abitanti": 791,
    "immagine": "https://upload.wikimedia.org/wikipedia/it/7/77/Meana_di_Susa-Gonfalone.png"
  },
  {
    "nome_comune": "Mercenasco",
    "codice_provincia": "TO",
    "lat": 45.3570306,
    "lon": 7.882605,
    "superficie_kmq": 12.7399,
    "flag_capoluogo": "NO",
    "pageviews": 2539,
    "provincia": "Torino",
    "regione": "Piemonte",
    "abitanti": 1332,
    "immagine": "https://upload.wikimedia.org/wikipedia/it/2/2c/Mercenasco-Gonfalone.png"
  },
  {
    "nome_comune": "Mezzenile",
    "codice_provincia": "TO",
    "lat": 45.2923447,
    "lon": 7.3949146,
    "superficie_kmq": 29.0525,
    "flag_capoluogo": "NO",
    "pageviews": 3904,
    "provincia": "Torino",
    "regione": "Piemonte",
    "abitanti": 733,
    "immagine": "https://upload.wikimedia.org/wikipedia/it/c/c8/Mezzenile-Gonfalone.png"
  },
  {
    "nome_comune": "Mombello di Torino",
    "codice_provincia": "TO",
    "lat": 45.0463613,
    "lon": 7.9195538,
    "superficie_kmq": 4.3443,
    "flag_capoluogo": "NO",
    "pageviews": 1354,
    "provincia": "Torino",
    "regione": "Piemonte",
    "abitanti": 398,
    "immagine": "https://upload.wikimedia.org/wikipedia/commons/thumb/8/86/Veduta_dell%27abitato_di_Mombello_Torinese.jpg/330px-Veduta_dell%27abitato_di_Mombello_Torinese.jpg"
  },
  {
    "nome_comune": "Mompantero",
    "codice_provincia": "TO",
    "lat": 45.1399475,
    "lon": 7.0580018,
    "superficie_kmq": 30.1456,
    "flag_capoluogo": "NO",
    "pageviews": 3237,
    "provincia": "Torino",
    "regione": "Piemonte",
    "abitanti": 619,
    "immagine": "https://upload.wikimedia.org/wikipedia/commons/thumb/6/6d/Mompantero.JPG/330px-Mompantero.JPG"
  },
  {
    "nome_comune": "Monastero di Lanzo",
    "codice_provincia": "TO",
    "lat": 45.3014494,
    "lon": 7.4391173,
    "superficie_kmq": 17.5545,
    "flag_capoluogo": "NO",
    "pageviews": 3292,
    "provincia": "Torino",
    "regione": "Piemonte",
    "abitanti": 379,
    "immagine": "https://upload.wikimedia.org/wikipedia/commons/thumb/8/8b/Monastero_di_lanzo_chiesa.jpg/330px-Monastero_di_lanzo_chiesa.jpg"
  },
  {
    "nome_comune": "Moncalieri",
    "codice_provincia": "TO",
    "lat": 45.0009565,
    "lon": 7.6853163,
    "superficie_kmq": 47.3946,
    "flag_capoluogo": "NO",
    "pageviews": 89415,
    "provincia": "Torino",
    "regione": "Piemonte",
    "abitanti": 55440,
    "immagine": "https://upload.wikimedia.org/wikipedia/commons/thumb/7/75/Moncalieri-Bandiera.svg/330px-Moncalieri-Bandiera.svg.png"
  },
  {
    "nome_comune": "Moncenisio",
    "codice_provincia": "TO",
    "lat": 45.2052427,
    "lon": 6.9835832,
    "superficie_kmq": 4.4607,
    "flag_capoluogo": "NO",
    "pageviews": 1817,
    "provincia": "Torino",
    "regione": "Piemonte",
    "abitanti": null,
    "immagine": "https://upload.wikimedia.org/wikipedia/commons/thumb/1/14/Mont_Cenis.jpg/330px-Mont_Cenis.jpg"
  },
  {
    "nome_comune": "Montaldo Torinese",
    "codice_provincia": "TO",
    "lat": 45.0663754,
    "lon": 7.8509022,
    "superficie_kmq": 4.7439,
    "flag_capoluogo": "NO",
    "pageviews": 3061,
    "provincia": "Torino",
    "regione": "Piemonte",
    "abitanti": 712,
    "immagine": "https://upload.wikimedia.org/wikipedia/commons/thumb/7/74/Montaldo_torinese_panorama.jpg/330px-Montaldo_torinese_panorama.jpg"
  },
  {
    "nome_comune": "Montalenghe",
    "codice_provincia": "TO",
    "lat": 45.3377012,
    "lon": 7.8397746,
    "superficie_kmq": 6.607,
    "flag_capoluogo": "NO",
    "pageviews": 2379,
    "provincia": "Torino",
    "regione": "Piemonte",
    "abitanti": 970,
    "immagine": "https://upload.wikimedia.org/wikipedia/commons/thumb/a/a8/Montalenghe_Panorama.JPG/330px-Montalenghe_Panorama.JPG"
  },
  {
    "nome_comune": "Montalto Dora",
    "codice_provincia": "TO",
    "lat": 45.493803,
    "lon": 7.864093,
    "superficie_kmq": 7.398,
    "flag_capoluogo": "NO",
    "pageviews": 4634,
    "provincia": "Torino",
    "regione": "Piemonte",
    "abitanti": 3308,
    "immagine": "https://upload.wikimedia.org/wikipedia/it/7/78/Montalto_Dora-Gonfalone.png"
  },
  {
    "nome_comune": "Montanaro",
    "codice_provincia": "TO",
    "lat": 45.2329277,
    "lon": 7.8528765,
    "superficie_kmq": 20.9776,
    "flag_capoluogo": "NO",
    "pageviews": 5323,
    "provincia": "Torino",
    "regione": "Piemonte",
    "abitanti": 4953,
    "immagine": "https://upload.wikimedia.org/wikipedia/commons/thumb/9/9c/Campanile_di_Montanaro.JPG/330px-Campanile_di_Montanaro.JPG"
  },
  {
    "nome_comune": "Monteu da Po",
    "codice_provincia": "TO",
    "lat": 45.1504808,
    "lon": 8.0147719,
    "superficie_kmq": 7.3803,
    "flag_capoluogo": "NO",
    "pageviews": 5638,
    "provincia": "Torino",
    "regione": "Piemonte",
    "abitanti": 829,
    "immagine": "https://upload.wikimedia.org/wikipedia/commons/b/bd/Iseion_industria.jpg"
  },
  {
    "nome_comune": "Moriondo Torinese",
    "codice_provincia": "TO",
    "lat": 45.0390345,
    "lon": 7.9440562,
    "superficie_kmq": 6.5533,
    "flag_capoluogo": "NO",
    "pageviews": 2337,
    "provincia": "Torino",
    "regione": "Piemonte",
    "abitanti": 834,
    "immagine": "https://upload.wikimedia.org/wikipedia/commons/thumb/a/a8/Veduta_su_Moriondo_Torinese.jpg/330px-Veduta_su_Moriondo_Torinese.jpg"
  },
  {
    "nome_comune": "Nichelino",
    "codice_provincia": "TO",
    "lat": 44.9951033,
    "lon": 7.6475753,
    "superficie_kmq": 20.7664,
    "flag_capoluogo": "NO",
    "pageviews": 21763,
    "provincia": "Torino",
    "regione": "Piemonte",
    "abitanti": 45662,
    "immagine": "https://upload.wikimedia.org/wikipedia/commons/thumb/2/21/Nichelino%2C_chiesa_di_Nostra_Signora_della_Visitazione_%2802%29.jpg/330px-Nichelino%2C_chiesa_di_Nostra_Signora_della_Visitazione_%2802%29.jpg"
  },
  {
    "nome_comune": "Noasca",
    "codice_provincia": "TO",
    "lat": 45.4542767,
    "lon": 7.31472,
    "superficie_kmq": 78.2832,
    "flag_capoluogo": "NO",
    "pageviews": 6706,
    "provincia": "Torino",
    "regione": "Piemonte",
    "abitanti": 97,
    "immagine": "https://upload.wikimedia.org/wikipedia/it/8/81/Noasca-Gonfalone.png"
  },
  {
    "nome_comune": "Nole",
    "codice_provincia": "TO",
    "lat": 45.2421626,
    "lon": 7.5745341,
    "superficie_kmq": 11.198,
    "flag_capoluogo": "NO",
    "pageviews": 6808,
    "provincia": "Torino",
    "regione": "Piemonte",
    "abitanti": 6667,
    "immagine": "https://upload.wikimedia.org/wikipedia/commons/thumb/1/16/Italy_provincial_location_map_2016.svg/330px-Italy_provincial_location_map_2016.svg.png"
  },
  {
    "nome_comune": "Nomaglio",
    "codice_provincia": "TO",
    "lat": 45.5351902,
    "lon": 7.8597546,
    "superficie_kmq": 3.1131,
    "flag_capoluogo": "NO",
    "pageviews": 1628,
    "provincia": "Torino",
    "regione": "Piemonte",
    "abitanti": 268,
    "immagine": "https://upload.wikimedia.org/wikipedia/commons/thumb/1/18/Nomaglio_Burnel_01.JPG/330px-Nomaglio_Burnel_01.JPG"
  },
  {
    "nome_comune": "NA",
    "codice_provincia": "TO",
    "lat": 44.9323135,
    "lon": 7.5412404,
    "superficie_kmq": 24.6858,
    "flag_capoluogo": "NO",
    "pageviews": 0,
    "provincia": "Torino",
    "regione": "Piemonte",
    "abitanti": null,
    "immagine": null
  },
  {
    "nome_comune": "Novalesa",
    "codice_provincia": "TO",
    "lat": 45.1875238,
    "lon": 7.0146266,
    "superficie_kmq": 28.7921,
    "flag_capoluogo": "NO",
    "pageviews": 8618,
    "provincia": "Torino",
    "regione": "Piemonte",
    "abitanti": 524,
    "immagine": "https://upload.wikimedia.org/wikipedia/commons/thumb/1/19/Novalesa%2C_panorama_02.jpg/330px-Novalesa%2C_panorama_02.jpg"
  },
  {
    "nome_comune": "Oglianico",
    "codice_provincia": "TO",
    "lat": 45.3426372,
    "lon": 7.692759,
    "superficie_kmq": 6.2768,
    "flag_capoluogo": "NO",
    "pageviews": 2017,
    "provincia": "Torino",
    "regione": "Piemonte",
    "abitanti": 1422,
    "immagine": "https://upload.wikimedia.org/wikipedia/commons/thumb/c/c5/Oglianico_Torre-Porta.JPG/330px-Oglianico_Torre-Porta.JPG"
  },
  {
    "nome_comune": "Orbassano",
    "codice_provincia": "TO",
    "lat": 45.0070492,
    "lon": 7.5369689,
    "superficie_kmq": 22.1491,
    "flag_capoluogo": "NO",
    "pageviews": 19995,
    "provincia": "Torino",
    "regione": "Piemonte",
    "abitanti": 22838,
    "immagine": "https://upload.wikimedia.org/wikipedia/commons/thumb/8/8e/Piazza_Umberto_I%2C_Orbassano%2C_Italia%2C_ottobre_2011.jpg/330px-Piazza_Umberto_I%2C_Orbassano%2C_Italia%2C_ottobre_2011.jpg"
  },
  {
    "nome_comune": "Orio Canavese",
    "codice_provincia": "TO",
    "lat": 45.3284705,
    "lon": 7.8603204,
    "superficie_kmq": 7.1912,
    "flag_capoluogo": "NO",
    "pageviews": 1211,
    "provincia": "Torino",
    "regione": "Piemonte",
    "abitanti": 734,
    "immagine": "https://upload.wikimedia.org/wikipedia/commons/thumb/1/16/Orio_canavese_panorama_da_sud.jpg/330px-Orio_canavese_panorama_da_sud.jpg"
  },
  {
    "nome_comune": "Osasco",
    "codice_provincia": "TO",
    "lat": 44.8494947,
    "lon": 7.3429993,
    "superficie_kmq": 5.6143,
    "flag_capoluogo": "NO",
    "pageviews": 253,
    "provincia": "Torino",
    "regione": "Piemonte",
    "abitanti": null,
    "immagine": null
  },
  {
    "nome_comune": "Osasio",
    "codice_provincia": "TO",
    "lat": 44.8694831,
    "lon": 7.6076093,
    "superficie_kmq": 4.9401,
    "flag_capoluogo": "NO",
    "pageviews": 2038,
    "provincia": "Torino",
    "regione": "Piemonte",
    "abitanti": 895,
    "immagine": "https://upload.wikimedia.org/wikipedia/commons/thumb/7/79/Osasio3.jpg/330px-Osasio3.jpg"
  },
  {
    "nome_comune": "Oulx",
    "codice_provincia": "TO",
    "lat": 45.0312715,
    "lon": 6.8322431,
    "superficie_kmq": 99.5177,
    "flag_capoluogo": "NO",
    "pageviews": 31459,
    "provincia": "Torino",
    "regione": "Piemonte",
    "abitanti": 3267,
    "immagine": "https://upload.wikimedia.org/wikipedia/commons/thumb/3/37/Oulx.jpg/330px-Oulx.jpg"
  },
  {
    "nome_comune": "Ozegna",
    "codice_provincia": "TO",
    "lat": 45.3489931,
    "lon": 7.7432096,
    "superficie_kmq": 5.4178,
    "flag_capoluogo": "NO",
    "pageviews": 2907,
    "provincia": "Torino",
    "regione": "Piemonte",
    "abitanti": 1168,
    "immagine": "https://upload.wikimedia.org/wikipedia/commons/thumb/6/62/Ozegna_Castello_01.jpg/330px-Ozegna_Castello_01.jpg"
  },
  {
    "nome_comune": "Palazzo Canavese",
    "codice_provincia": "TO",
    "lat": 45.4577007,
    "lon": 7.9782036,
    "superficie_kmq": 5.145,
    "flag_capoluogo": "NO",
    "pageviews": 1244,
    "provincia": "Torino",
    "regione": "Piemonte",
    "abitanti": 837,
    "immagine": "https://upload.wikimedia.org/wikipedia/commons/thumb/e/e1/Palazzo_Canavese_e_le_Alpi.jpg/330px-Palazzo_Canavese_e_le_Alpi.jpg"
  },
  {
    "nome_comune": "Pancalieri",
    "codice_provincia": "TO",
    "lat": 44.8304877,
    "lon": 7.5881886,
    "superficie_kmq": 15.4009,
    "flag_capoluogo": "NO",
    "pageviews": 5592,
    "provincia": "Torino",
    "regione": "Piemonte",
    "abitanti": 1949,
    "immagine": "https://upload.wikimedia.org/wikipedia/commons/thumb/3/3d/Antico_Mulino_Pancalieri.JPG/330px-Antico_Mulino_Pancalieri.JPG"
  },
  {
    "nome_comune": "Parella",
    "codice_provincia": "TO",
    "lat": 45.4300035,
    "lon": 7.7909823,
    "superficie_kmq": 2.7322,
    "flag_capoluogo": "NO",
    "pageviews": 1962,
    "provincia": "Torino",
    "regione": "Piemonte",
    "abitanti": 400,
    "immagine": "https://upload.wikimedia.org/wikipedia/commons/thumb/5/55/Parella_Paesaggio_01.JPG/330px-Parella_Paesaggio_01.JPG"
  },
  {
    "nome_comune": "Pavarolo",
    "codice_provincia": "TO",
    "lat": 45.0686502,
    "lon": 7.835206,
    "superficie_kmq": 4.4638,
    "flag_capoluogo": "NO",
    "pageviews": 4120,
    "provincia": "Torino",
    "regione": "Piemonte",
    "abitanti": 1182,
    "immagine": "https://upload.wikimedia.org/wikipedia/commons/thumb/b/bb/Pavarolo_veduta.jpg/330px-Pavarolo_veduta.jpg"
  },
  {
    "nome_comune": "Pavone Canavese",
    "codice_provincia": "TO",
    "lat": 45.4352456,
    "lon": 7.8539878,
    "superficie_kmq": 11.4805,
    "flag_capoluogo": "NO",
    "pageviews": 3344,
    "provincia": "Torino",
    "regione": "Piemonte",
    "abitanti": 3652,
    "immagine": "https://upload.wikimedia.org/wikipedia/commons/thumb/3/36/PavoneCanavese_panorama.jpg/330px-PavoneCanavese_panorama.jpg"
  },
  {
    "nome_comune": "Pecetto Torinese",
    "codice_provincia": "TO",
    "lat": 45.0185761,
    "lon": 7.7486286,
    "superficie_kmq": 9.2476,
    "flag_capoluogo": "NO",
    "pageviews": 7409,
    "provincia": "Torino",
    "regione": "Piemonte",
    "abitanti": 4015,
    "immagine": "https://upload.wikimedia.org/wikipedia/commons/thumb/3/30/Pecetto_Torinese%2C_panorama_%2801%29.jpg/330px-Pecetto_Torinese%2C_panorama_%2801%29.jpg"
  },
  {
    "nome_comune": "Perosa Argentina",
    "codice_provincia": "TO",
    "lat": 44.9581802,
    "lon": 7.1922752,
    "superficie_kmq": 25.9475,
    "flag_capoluogo": "NO",
    "pageviews": 16938,
    "provincia": "Torino",
    "regione": "Piemonte",
    "abitanti": 3127,
    "immagine": "https://upload.wikimedia.org/wikipedia/it/6/67/Perosa_Argentina-Gonfalone.png"
  },
  {
    "nome_comune": "Perosa Canavese",
    "codice_provincia": "TO",
    "lat": 45.3971383,
    "lon": 7.8292811,
    "superficie_kmq": 4.6306,
    "flag_capoluogo": "NO",
    "pageviews": 1007,
    "provincia": "Torino",
    "regione": "Piemonte",
    "abitanti": 498,
    "immagine": "https://upload.wikimedia.org/wikipedia/commons/thumb/e/e5/Perosa_Torre_Porta.JPG/330px-Perosa_Torre_Porta.JPG"
  },
  {
    "nome_comune": "Perrero",
    "codice_provincia": "TO",
    "lat": 44.9374383,
    "lon": 7.1152518,
    "superficie_kmq": 63.172,
    "flag_capoluogo": "NO",
    "pageviews": 19431,
    "provincia": "Torino",
    "regione": "Piemonte",
    "abitanti": 551,
    "immagine": "https://upload.wikimedia.org/wikipedia/commons/thumb/6/62/Perrero_panorama.jpg/330px-Perrero_panorama.jpg"
  },
  {
    "nome_comune": "Pertusio",
    "codice_provincia": "TO",
    "lat": 45.3532858,
    "lon": 7.6388871,
    "superficie_kmq": 3.8854,
    "flag_capoluogo": "NO",
    "pageviews": 2383,
    "provincia": "Torino",
    "regione": "Piemonte",
    "abitanti": 741,
    "immagine": "https://upload.wikimedia.org/wikipedia/commons/thumb/0/0a/Pertusio_san_firmino.jpg/330px-Pertusio_san_firmino.jpg"
  },
  {
    "nome_comune": "Pessinetto",
    "codice_provincia": "TO",
    "lat": 45.2905289,
    "lon": 7.4028414,
    "superficie_kmq": 5.6202,
    "flag_capoluogo": "NO",
    "pageviews": 4309,
    "provincia": "Torino",
    "regione": "Piemonte",
    "abitanti": 600,
    "immagine": "https://upload.wikimedia.org/wikipedia/commons/thumb/a/ae/Pessinetto_pan_da_m_crest%C3%A0.jpg/330px-Pessinetto_pan_da_m_crest%C3%A0.jpg"
  },
  {
    "nome_comune": "Pianezza",
    "codice_provincia": "TO",
    "lat": 45.1007066,
    "lon": 7.5465646,
    "superficie_kmq": 16.4082,
    "flag_capoluogo": "NO",
    "pageviews": 9567,
    "provincia": "Torino",
    "regione": "Piemonte",
    "abitanti": 15641,
    "immagine": "https://upload.wikimedia.org/wikipedia/commons/thumb/f/f6/Villa_Leumann.JPG/330px-Villa_Leumann.JPG"
  },
  {
    "nome_comune": "Pinasca",
    "codice_provincia": "TO",
    "lat": 44.9426379,
    "lon": 7.2277062,
    "superficie_kmq": 34.9661,
    "flag_capoluogo": "NO",
    "pageviews": 3644,
    "provincia": "Torino",
    "regione": "Piemonte",
    "abitanti": 2768,
    "immagine": "https://upload.wikimedia.org/wikipedia/commons/thumb/0/06/Pinasca-Panorama.jpg/330px-Pinasca-Panorama.jpg"
  },
  {
    "nome_comune": "Pinerolo",
    "codice_provincia": "TO",
    "lat": 44.8873333,
    "lon": 7.3320503,
    "superficie_kmq": 49.9877,
    "flag_capoluogo": "NO",
    "pageviews": 68991,
    "provincia": "Torino",
    "regione": "Piemonte",
    "abitanti": 35390,
    "immagine": "https://upload.wikimedia.org/wikipedia/commons/thumb/2/21/Pinerolo92.jpg/330px-Pinerolo92.jpg"
  },
  {
    "nome_comune": "Pino Torinese",
    "codice_provincia": "TO",
    "lat": 45.04349,
    "lon": 7.7721855,
    "superficie_kmq": 21.8061,
    "flag_capoluogo": "NO",
    "pageviews": 8372,
    "provincia": "Torino",
    "regione": "Piemonte",
    "abitanti": 8323,
    "immagine": "https://upload.wikimedia.org/wikipedia/it/3/3e/Pino_Torinese-Gonfalone.png"
  },
  {
    "nome_comune": "Piobesi Torinese",
    "codice_provincia": "TO",
    "lat": 44.9330906,
    "lon": 7.6119242,
    "superficie_kmq": 19.3538,
    "flag_capoluogo": "NO",
    "pageviews": 4025,
    "provincia": "Torino",
    "regione": "Piemonte",
    "abitanti": 3764,
    "immagine": "https://upload.wikimedia.org/wikipedia/commons/thumb/f/f7/Corso_Italia_a_Piobesi_Torinese.jpg/330px-Corso_Italia_a_Piobesi_Torinese.jpg"
  },
  {
    "nome_comune": "Piossasco",
    "codice_provincia": "TO",
    "lat": 44.99062,
    "lon": 7.4626508,
    "superficie_kmq": 39.7727,
    "flag_capoluogo": "NO",
    "pageviews": 9878,
    "provincia": "Torino",
    "regione": "Piemonte",
    "abitanti": 17935,
    "immagine": "https://upload.wikimedia.org/wikipedia/commons/thumb/4/4e/Piossasco_san_vito.jpg/330px-Piossasco_san_vito.jpg"
  },
  {
    "nome_comune": "Piscina",
    "codice_provincia": "TO",
    "lat": 44.9194511,
    "lon": 7.425907,
    "superficie_kmq": 9.756,
    "flag_capoluogo": "NO",
    "pageviews": 5867,
    "provincia": "Torino",
    "regione": "Piemonte",
    "abitanti": null,
    "immagine": "https://upload.wikimedia.org/wikipedia/commons/thumb/a/a6/Swifts_creek_pool.jpg/330px-Swifts_creek_pool.jpg"
  },
  {
    "nome_comune": "Piverone",
    "codice_provincia": "TO",
    "lat": 45.4475126,
    "lon": 8.0070956,
    "superficie_kmq": 11.0868,
    "flag_capoluogo": "NO",
    "pageviews": 2886,
    "provincia": "Torino",
    "regione": "Piemonte",
    "abitanti": 1234,
    "immagine": "https://upload.wikimedia.org/wikipedia/commons/thumb/7/70/Pivron_-_Tor_rom%C3%A0nica.jpg/330px-Pivron_-_Tor_rom%C3%A0nica.jpg"
  },
  {
    "nome_comune": "Poirino",
    "codice_provincia": "TO",
    "lat": 44.9211226,
    "lon": 7.8436611,
    "superficie_kmq": 75.6908,
    "flag_capoluogo": "NO",
    "pageviews": 9463,
    "provincia": "Torino",
    "regione": "Piemonte",
    "abitanti": 10185,
    "immagine": "https://upload.wikimedia.org/wikipedia/commons/thumb/1/12/Poirino-Bandiera.svg/330px-Poirino-Bandiera.svg.png"
  },
  {
    "nome_comune": "Pomaretto",
    "codice_provincia": "TO",
    "lat": 44.9550893,
    "lon": 7.1821205,
    "superficie_kmq": 8.5166,
    "flag_capoluogo": "NO",
    "pageviews": 4779,
    "provincia": "Torino",
    "regione": "Piemonte",
    "abitanti": 930,
    "immagine": "https://upload.wikimedia.org/wikipedia/commons/thumb/b/bc/Pomaretto_panorama.jpg/330px-Pomaretto_panorama.jpg"
  },
  {
    "nome_comune": "Pont Canavese",
    "codice_provincia": "TO",
    "lat": 45.4207259,
    "lon": 7.5937483,
    "superficie_kmq": 18.3676,
    "flag_capoluogo": "NO",
    "pageviews": 8984,
    "provincia": "Torino",
    "regione": "Piemonte",
    "abitanti": 3011,
    "immagine": "https://upload.wikimedia.org/wikipedia/commons/thumb/c/c1/Pont_Canavese_Veduta.JPG/330px-Pont_Canavese_Veduta.JPG"
  },
  {
    "nome_comune": "Porte",
    "codice_provincia": "TO",
    "lat": 44.8876041,
    "lon": 7.2680289,
    "superficie_kmq": 4.4359,
    "flag_capoluogo": "NO",
    "pageviews": 135,
    "provincia": "Torino",
    "regione": "Piemonte",
    "abitanti": null,
    "immagine": null
  },
  {
    "nome_comune": "Pragelato",
    "codice_provincia": "TO",
    "lat": 45.0162815,
    "lon": 6.9423638,
    "superficie_kmq": 89.0846,
    "flag_capoluogo": "NO",
    "pageviews": 20864,
    "provincia": "Torino",
    "regione": "Piemonte",
    "abitanti": 687,
    "immagine": "https://upload.wikimedia.org/wikipedia/it/b/b8/Pragelato-Gonfalone.png"
  },
  {
    "nome_comune": "Prali",
    "codice_provincia": "TO",
    "lat": 44.8892028,
    "lon": 7.0487925,
    "superficie_kmq": 72.6308,
    "flag_capoluogo": "NO",
    "pageviews": 13377,
    "provincia": "Torino",
    "regione": "Piemonte",
    "abitanti": 256,
    "immagine": "https://upload.wikimedia.org/wikipedia/commons/thumb/3/33/Prali.JPG/330px-Prali.JPG"
  },
  {
    "nome_comune": "Pralormo",
    "codice_provincia": "TO",
    "lat": 44.8613363,
    "lon": 7.9006551,
    "superficie_kmq": 29.9367,
    "flag_capoluogo": "NO",
    "pageviews": 6291,
    "provincia": "Torino",
    "regione": "Piemonte",
    "abitanti": 1868,
    "immagine": "https://upload.wikimedia.org/wikipedia/commons/thumb/5/5e/Pralormo_pan.jpg/330px-Pralormo_pan.jpg"
  },
  {
    "nome_comune": "Pramollo",
    "codice_provincia": "TO",
    "lat": 44.9044962,
    "lon": 7.2116611,
    "superficie_kmq": 22.5421,
    "flag_capoluogo": "NO",
    "pageviews": 3483,
    "provincia": "Torino",
    "regione": "Piemonte",
    "abitanti": 212,
    "immagine": "https://upload.wikimedia.org/wikipedia/commons/thumb/1/16/Italy_provincial_location_map_2016.svg/330px-Italy_provincial_location_map_2016.svg.png"
  },
  {
    "nome_comune": "Fara Novarese",
    "codice_provincia": "NO",
    "lat": 45.5551553,
    "lon": 8.459068,
    "superficie_kmq": 9.1297,
    "flag_capoluogo": "NO",
    "pageviews": 2958,
    "provincia": "Novara",
    "regione": "Piemonte",
    "abitanti": 2013,
    "immagine": "https://upload.wikimedia.org/wikipedia/commons/thumb/8/84/Panorama_Fara_Novarese.jpg/330px-Panorama_Fara_Novarese.jpg"
  },
  {
    "nome_comune": "Fontaneto d'Agogna",
    "codice_provincia": "NO",
    "lat": 45.6399695,
    "lon": 8.4841803,
    "superficie_kmq": 21.3003,
    "flag_capoluogo": "NO",
    "pageviews": 4218,
    "provincia": "Novara",
    "regione": "Piemonte",
    "abitanti": 2633,
    "immagine": "https://upload.wikimedia.org/wikipedia/commons/thumb/a/a5/Fontanetod%27Agogna_parrocchiale.jpg/330px-Fontanetod%27Agogna_parrocchiale.jpg"
  },
  {
    "nome_comune": "Galliate",
    "codice_provincia": "NO",
    "lat": 45.4776303,
    "lon": 8.6952155,
    "superficie_kmq": 29.2244,
    "flag_capoluogo": "NO",
    "pageviews": 18120,
    "provincia": "Novara",
    "regione": "Piemonte",
    "abitanti": 15853,
    "immagine": "https://upload.wikimedia.org/wikipedia/commons/thumb/1/16/Italy_provincial_location_map_2016.svg/330px-Italy_provincial_location_map_2016.svg.png"
  },
  {
    "nome_comune": "Garbagna Novarese",
    "codice_provincia": "NO",
    "lat": 45.3866557,
    "lon": 8.6596751,
    "superficie_kmq": 10.0525,
    "flag_capoluogo": "NO",
    "pageviews": 2779,
    "provincia": "Novara",
    "regione": "Piemonte",
    "abitanti": 1402,
    "immagine": "https://upload.wikimedia.org/wikipedia/commons/thumb/1/17/Garbagna_veduta.jpg/330px-Garbagna_veduta.jpg"
  },
  {
    "nome_comune": "Gargallo",
    "codice_provincia": "NO",
    "lat": 45.7275177,
    "lon": 8.4292431,
    "superficie_kmq": 3.8321,
    "flag_capoluogo": "NO",
    "pageviews": 2074,
    "provincia": "Novara",
    "regione": "Piemonte",
    "abitanti": 1749,
    "immagine": "https://upload.wikimedia.org/wikipedia/commons/thumb/6/6e/San_Pietro%2C_chiesa_parrocchiale_a_Gargallo%2C_Italy.jpg/330px-San_Pietro%2C_chiesa_parrocchiale_a_Gargallo%2C_Italy.jpg"
  },
  {
    "nome_comune": "Ghemme",
    "codice_provincia": "NO",
    "lat": 45.5977769,
    "lon": 8.4201445,
    "superficie_kmq": 20.3587,
    "flag_capoluogo": "NO",
    "pageviews": 9267,
    "provincia": "Novara",
    "regione": "Piemonte",
    "abitanti": 3468,
    "immagine": "https://upload.wikimedia.org/wikipedia/commons/thumb/b/b8/Ghemme_ricetto2.jpg/330px-Ghemme_ricetto2.jpg"
  },
  {
    "nome_comune": "Gozzano",
    "codice_provincia": "NO",
    "lat": 45.7474019,
    "lon": 8.4346675,
    "superficie_kmq": 12.2126,
    "flag_capoluogo": "NO",
    "pageviews": 11619,
    "provincia": "Novara",
    "regione": "Piemonte",
    "abitanti": 5490,
    "immagine": "https://upload.wikimedia.org/wikipedia/commons/thumb/e/e4/Gozzano_panorama.jpg/330px-Gozzano_panorama.jpg"
  },
  {
    "nome_comune": "Granozzo con Monticello",
    "codice_provincia": "NO",
    "lat": 45.3597821,
    "lon": 8.5737831,
    "superficie_kmq": 19.1445,
    "flag_capoluogo": "NO",
    "pageviews": 2627,
    "provincia": "Novara",
    "regione": "Piemonte",
    "abitanti": 1300,
    "immagine": "https://upload.wikimedia.org/wikipedia/commons/thumb/9/99/Monticello_panorama.jpg/330px-Monticello_panorama.jpg"
  },
  {
    "nome_comune": "Grignasco",
    "codice_provincia": "NO",
    "lat": 45.6820262,
    "lon": 8.3396951,
    "superficie_kmq": 14.3431,
    "flag_capoluogo": "NO",
    "pageviews": 5409,
    "provincia": "Novara",
    "regione": "Piemonte",
    "abitanti": 4279,
    "immagine": "https://upload.wikimedia.org/wikipedia/commons/thumb/f/f4/Oratorio_Grignasco.JPG/330px-Oratorio_Grignasco.JPG"
  },
  {
    "nome_comune": "Invorio",
    "codice_provincia": "NO",
    "lat": 45.7558822,
    "lon": 8.4868148,
    "superficie_kmq": 17.3834,
    "flag_capoluogo": "NO",
    "pageviews": 5517,
    "provincia": "Novara",
    "regione": "Piemonte",
    "abitanti": 4288,
    "immagine": "https://upload.wikimedia.org/wikipedia/commons/thumb/a/a5/Invorio.jpg/330px-Invorio.jpg"
  },
  {
    "nome_comune": "Landiona",
    "codice_provincia": "NO",
    "lat": 45.4968621,
    "lon": 8.4221343,
    "superficie_kmq": 7.2531,
    "flag_capoluogo": "NO",
    "pageviews": 1920,
    "provincia": "Novara",
    "regione": "Piemonte",
    "abitanti": 523,
    "immagine": "https://upload.wikimedia.org/wikipedia/commons/thumb/8/85/Landiona_castello.jpg/330px-Landiona_castello.jpg"
  },
  {
    "nome_comune": "Lesa",
    "codice_provincia": "NO",
    "lat": 45.8300977,
    "lon": 8.5647848,
    "superficie_kmq": 13.4172,
    "flag_capoluogo": "NO",
    "pageviews": 9746,
    "provincia": "Novara",
    "regione": "Piemonte",
    "abitanti": 2176,
    "immagine": "https://upload.wikimedia.org/wikipedia/commons/thumb/9/9d/Solcio_Panorama.JPG/330px-Solcio_Panorama.JPG"
  },
  {
    "nome_comune": "Maggiora",
    "codice_provincia": "NO",
    "lat": 45.6907794,
    "lon": 8.4210033,
    "superficie_kmq": 10.9345,
    "flag_capoluogo": "NO",
    "pageviews": 3374,
    "provincia": "Novara",
    "regione": "Piemonte",
    "abitanti": 1633,
    "immagine": "https://upload.wikimedia.org/wikipedia/commons/thumb/5/5d/Maggiora_panorama.jpg/330px-Maggiora_panorama.jpg"
  },
  {
    "nome_comune": "Mandello Vitta",
    "codice_provincia": "NO",
    "lat": 45.4951692,
    "lon": 8.4591716,
    "superficie_kmq": 5.7968,
    "flag_capoluogo": "NO",
    "pageviews": 1259,
    "provincia": "Novara",
    "regione": "Piemonte",
    "abitanti": 206,
    "immagine": "https://upload.wikimedia.org/wikipedia/commons/thumb/d/df/MandelloVitta_panorama_est.jpg/330px-MandelloVitta_panorama_est.jpg"
  },
  {
    "nome_comune": "Marano Ticino",
    "codice_provincia": "NO",
    "lat": 45.6297598,
    "lon": 8.6319372,
    "superficie_kmq": 8.1004,
    "flag_capoluogo": "NO",
    "pageviews": 2069,
    "provincia": "Novara",
    "regione": "Piemonte",
    "abitanti": 1614,
    "immagine": "https://upload.wikimedia.org/wikipedia/commons/thumb/0/05/Marano_Ticino_Chiesa_Parrocchiale_di_San_Giovanni_Battista.jpg/330px-Marano_Ticino_Chiesa_Parrocchiale_di_San_Giovanni_Battista.jpg"
  },
  {
    "nome_comune": "Massino Visconti",
    "codice_provincia": "NO",
    "lat": 45.8219023,
    "lon": 8.5388064,
    "superficie_kmq": 6.8691,
    "flag_capoluogo": "NO",
    "pageviews": 4581,
    "provincia": "Novara",
    "regione": "Piemonte",
    "abitanti": 1123,
    "immagine": "https://upload.wikimedia.org/wikipedia/commons/thumb/c/ce/Massino_Visconti.jpg/330px-Massino_Visconti.jpg"
  },
  {
    "nome_comune": "Meina",
    "codice_provincia": "NO",
    "lat": 45.7900453,
    "lon": 8.5376919,
    "superficie_kmq": 7.5635,
    "flag_capoluogo": "NO",
    "pageviews": 6466,
    "provincia": "Novara",
    "regione": "Piemonte",
    "abitanti": 2347,
    "immagine": "https://upload.wikimedia.org/wikipedia/commons/thumb/8/8a/Meina_Panorama_2.psd.jpg/330px-Meina_Panorama_2.psd.jpg"
  },
  {
    "nome_comune": "Mezzomerico",
    "codice_provincia": "NO",
    "lat": 45.6202726,
    "lon": 8.6045925,
    "superficie_kmq": 7.598,
    "flag_capoluogo": "NO",
    "pageviews": 2521,
    "provincia": "Novara",
    "regione": "Piemonte",
    "abitanti": 1206,
    "immagine": "https://upload.wikimedia.org/wikipedia/commons/thumb/8/8c/Mezzomerico_panorama.jpg/330px-Mezzomerico_panorama.jpg"
  },
  {
    "nome_comune": "Miasino",
    "codice_provincia": "NO",
    "lat": 45.8021058,
    "lon": 8.4302634,
    "superficie_kmq": 5.4584,
    "flag_capoluogo": "NO",
    "pageviews": 3065,
    "provincia": "Novara",
    "regione": "Piemonte",
    "abitanti": 814,
    "immagine": "https://upload.wikimedia.org/wikipedia/commons/thumb/6/6e/Miasino.JPG/330px-Miasino.JPG"
  },
  {
    "nome_comune": "Momo",
    "codice_provincia": "NO",
    "lat": 45.573932,
    "lon": 8.5553671,
    "superficie_kmq": 23.2701,
    "flag_capoluogo": "NO",
    "pageviews": 1662,
    "provincia": "Novara",
    "regione": "Piemonte",
    "abitanti": null,
    "immagine": null
  },
  {
    "nome_comune": "Nebbiuno",
    "codice_provincia": "NO",
    "lat": 45.8060806,
    "lon": 8.5242221,
    "superficie_kmq": 8.2726,
    "flag_capoluogo": "NO",
    "pageviews": 7760,
    "provincia": "Novara",
    "regione": "Piemonte",
    "abitanti": 1842,
    "immagine": "https://upload.wikimedia.org/wikipedia/commons/thumb/0/05/Nebbiuno_parrocchiale.jpg/330px-Nebbiuno_parrocchiale.jpg"
  },
  {
    "nome_comune": "Nibbiola",
    "codice_provincia": "NO",
    "lat": 45.3718476,
    "lon": 8.6563164,
    "superficie_kmq": 11.5944,
    "flag_capoluogo": "NO",
    "pageviews": 2929,
    "provincia": "Novara",
    "regione": "Piemonte",
    "abitanti": 835,
    "immagine": "https://upload.wikimedia.org/wikipedia/it/thumb/2/24/Nibbiola-Gonfalone.png/330px-Nibbiola-Gonfalone.png"
  },
  {
    "nome_comune": "Novara",
    "codice_provincia": "NO",
    "lat": 45.4458504,
    "lon": 8.621948,
    "superficie_kmq": 102.8995,
    "flag_capoluogo": "SI",
    "pageviews": 119792,
    "provincia": "Novara",
    "regione": "Piemonte",
    "abitanti": 103130,
    "immagine": "https://upload.wikimedia.org/wikipedia/commons/thumb/e/e3/Flag_of_Novara.svg/330px-Flag_of_Novara.svg.png"
  },
  {
    "nome_comune": "Oleggio",
    "codice_provincia": "NO",
    "lat": 45.5963825,
    "lon": 8.6374759,
    "superficie_kmq": 37.5585,
    "flag_capoluogo": "NO",
    "pageviews": 13758,
    "provincia": "Novara",
    "regione": "Piemonte",
    "abitanti": 14239,
    "immagine": "https://upload.wikimedia.org/wikipedia/commons/thumb/1/16/Italy_provincial_location_map_2016.svg/330px-Italy_provincial_location_map_2016.svg.png"
  },
  {
    "nome_comune": "Oleggio Castello",
    "codice_provincia": "NO",
    "lat": 45.749385,
    "lon": 8.529841,
    "superficie_kmq": 6.1314,
    "flag_capoluogo": "NO",
    "pageviews": 3102,
    "provincia": "Novara",
    "regione": "Piemonte",
    "abitanti": 2219,
    "immagine": "https://upload.wikimedia.org/wikipedia/commons/thumb/3/36/OleggioCastello_parrocchiale.jpg/330px-OleggioCastello_parrocchiale.jpg"
  },
  {
    "nome_comune": "Orta San Giulio",
    "codice_provincia": "NO",
    "lat": 45.7998369,
    "lon": 8.4051688,
    "superficie_kmq": 6.6457,
    "flag_capoluogo": "NO",
    "pageviews": 50193,
    "provincia": "Novara",
    "regione": "Piemonte",
    "abitanti": 1070,
    "immagine": "https://upload.wikimedia.org/wikipedia/commons/thumb/1/1d/OrtaSanGiulio%26IsolaSanGiulio.jpg/330px-OrtaSanGiulio%26IsolaSanGiulio.jpg"
  },
  {
    "nome_comune": "Paruzzaro",
    "codice_provincia": "NO",
    "lat": 45.7486889,
    "lon": 8.5133252,
    "superficie_kmq": 5.4444,
    "flag_capoluogo": "NO",
    "pageviews": 3274,
    "provincia": "Novara",
    "regione": "Piemonte",
    "abitanti": 2128,
    "immagine": "https://upload.wikimedia.org/wikipedia/commons/thumb/1/18/Paruzzaro_veduta.jpg/330px-Paruzzaro_veduta.jpg"
  },
  {
    "nome_comune": "Pella",
    "codice_provincia": "NO",
    "lat": 45.7970766,
    "lon": 8.3831702,
    "superficie_kmq": 7.9348,
    "flag_capoluogo": "NO",
    "pageviews": 463,
    "provincia": "Novara",
    "regione": "Piemonte",
    "abitanti": null,
    "immagine": null
  },
  {
    "nome_comune": "Pettenasco",
    "codice_provincia": "NO",
    "lat": 45.8173284,
    "lon": 8.4085679,
    "superficie_kmq": 7.1,
    "flag_capoluogo": "NO",
    "pageviews": 6560,
    "provincia": "Novara",
    "regione": "Piemonte",
    "abitanti": 1300,
    "immagine": "https://upload.wikimedia.org/wikipedia/commons/thumb/0/07/Pettenasco.jpg/330px-Pettenasco.jpg"
  },
  {
    "nome_comune": "Pisano",
    "codice_provincia": "NO",
    "lat": 45.7935374,
    "lon": 8.5104159,
    "superficie_kmq": 2.8094,
    "flag_capoluogo": "NO",
    "pageviews": 456,
    "provincia": "Novara",
    "regione": "Piemonte",
    "abitanti": null,
    "immagine": null
  },
  {
    "nome_comune": "Pogno",
    "codice_provincia": "NO",
    "lat": 45.7566695,
    "lon": 8.3831012,
    "superficie_kmq": 9.9212,
    "flag_capoluogo": "NO",
    "pageviews": 2124,
    "provincia": "Novara",
    "regione": "Piemonte",
    "abitanti": 1356,
    "immagine": "https://upload.wikimedia.org/wikipedia/commons/thumb/8/8a/Pogno_piazza_Alpini_d%27Italia.png/330px-Pogno_piazza_Alpini_d%27Italia.png"
  },
  {
    "nome_comune": "Pombia",
    "codice_provincia": "NO",
    "lat": 45.6491038,
    "lon": 8.6327453,
    "superficie_kmq": 12.347,
    "flag_capoluogo": "NO",
    "pageviews": 5354,
    "provincia": "Novara",
    "regione": "Piemonte",
    "abitanti": 2106,
    "immagine": "https://upload.wikimedia.org/wikipedia/commons/thumb/1/1a/Pombia_veduta.jpg/330px-Pombia_veduta.jpg"
  },
  {
    "nome_comune": "Prato Sesia",
    "codice_provincia": "NO",
    "lat": 45.6478623,
    "lon": 8.3737385,
    "superficie_kmq": 12.3737,
    "flag_capoluogo": "NO",
    "pageviews": 3862,
    "provincia": "Novara",
    "regione": "Piemonte",
    "abitanti": 1812,
    "immagine": "https://upload.wikimedia.org/wikipedia/commons/thumb/f/ff/PratoSesia_panorama_inv.jpg/330px-PratoSesia_panorama_inv.jpg"
  },
  {
    "nome_comune": "Recetto",
    "codice_provincia": "NO",
    "lat": 45.4609596,
    "lon": 8.4365359,
    "superficie_kmq": 8.8344,
    "flag_capoluogo": "NO",
    "pageviews": 2347,
    "provincia": "Novara",
    "regione": "Piemonte",
    "abitanti": 1026,
    "immagine": "https://upload.wikimedia.org/wikipedia/commons/thumb/6/69/Recetto_veduta.jpg/330px-Recetto_veduta.jpg"
  },
  {
    "nome_comune": "RomagNAo Sesia",
    "codice_provincia": "NO",
    "lat": 45.6333932,
    "lon": 8.3826912,
    "superficie_kmq": 17.9953,
    "flag_capoluogo": "NO",
    "pageviews": 8268,
    "provincia": "Novara",
    "regione": "Piemonte",
    "abitanti": 3737,
    "immagine": "https://upload.wikimedia.org/wikipedia/commons/thumb/f/fa/RomagNAo_Sesia_Veduta_da_Villa_Caccia.JPG/330px-RomagNAo_Sesia_Veduta_da_Villa_Caccia.JPG"
  },
  {
    "nome_comune": "Romentino",
    "codice_provincia": "NO",
    "lat": 45.4626025,
    "lon": 8.720865,
    "superficie_kmq": 17.6482,
    "flag_capoluogo": "NO",
    "pageviews": 5819,
    "provincia": "Novara",
    "regione": "Piemonte",
    "abitanti": 5647,
    "immagine": "https://upload.wikimedia.org/wikipedia/commons/thumb/0/03/Romentino_veduta.jpg/330px-Romentino_veduta.jpg"
  },
  {
    "nome_comune": "San Maurizio d'Opaglio",
    "codice_provincia": "NO",
    "lat": 45.7723901,
    "lon": 8.3910007,
    "superficie_kmq": 8.6515,
    "flag_capoluogo": "NO",
    "pageviews": 5654,
    "provincia": "Novara",
    "regione": "Piemonte",
    "abitanti": 2948,
    "immagine": "https://upload.wikimedia.org/wikipedia/commons/thumb/c/ca/San_Maurizio_d%E2%80%99Opaglio_-_panorama.jpg/330px-San_Maurizio_d%E2%80%99Opaglio_-_panorama.jpg"
  },
  {
    "nome_comune": "San Nazzaro Sesia",
    "codice_provincia": "NO",
    "lat": 45.4380942,
    "lon": 8.4235444,
    "superficie_kmq": 11.4399,
    "flag_capoluogo": "NO",
    "pageviews": 2415,
    "provincia": "Novara",
    "regione": "Piemonte",
    "abitanti": 704,
    "immagine": "https://upload.wikimedia.org/wikipedia/it/4/4b/San_Nazzaro_Sesia-Gonfalone.png"
  },
  {
    "nome_comune": "San Pietro Mosezzo",
    "codice_provincia": "NO",
    "lat": 45.4556397,
    "lon": 8.5434353,
    "superficie_kmq": 35.1539,
    "flag_capoluogo": "NO",
    "pageviews": 9173,
    "provincia": "Novara",
    "regione": "Piemonte",
    "abitanti": 1980,
    "immagine": "https://upload.wikimedia.org/wikipedia/commons/thumb/5/5a/SanPietroMosezzo_municipio.jpg/330px-SanPietroMosezzo_municipio.jpg"
  },
  {
    "nome_comune": "Sillavengo",
    "codice_provincia": "NO",
    "lat": 45.5204214,
    "lon": 8.4404986,
    "superficie_kmq": 9.762,
    "flag_capoluogo": "NO",
    "pageviews": 2626,
    "provincia": "Novara",
    "regione": "Piemonte",
    "abitanti": 581,
    "immagine": "https://upload.wikimedia.org/wikipedia/commons/thumb/6/68/Sillavengo_SanGiovanni.jpg/330px-Sillavengo_SanGiovanni.jpg"
  },
  {
    "nome_comune": "Sizzano",
    "codice_provincia": "NO",
    "lat": 45.5773308,
    "lon": 8.4373053,
    "superficie_kmq": 10.853,
    "flag_capoluogo": "NO",
    "pageviews": 2495,
    "provincia": "Novara",
    "regione": "Piemonte",
    "abitanti": 1334,
    "immagine": "https://upload.wikimedia.org/wikipedia/commons/thumb/6/68/Sizzano_ricetto.jpg/330px-Sizzano_ricetto.jpg"
  },
  {
    "nome_comune": "Soriso",
    "codice_provincia": "NO",
    "lat": 45.7424197,
    "lon": 8.4091416,
    "superficie_kmq": 6.4252,
    "flag_capoluogo": "NO",
    "pageviews": 1811,
    "provincia": "Novara",
    "regione": "Piemonte",
    "abitanti": 702,
    "immagine": "https://upload.wikimedia.org/wikipedia/commons/thumb/f/fc/Soriso_Chiesa_di_San_Giacomo.jpg/330px-Soriso_Chiesa_di_San_Giacomo.jpg"
  },
  {
    "nome_comune": "Sozzago",
    "codice_provincia": "NO",
    "lat": 45.3979676,
    "lon": 8.7209912,
    "superficie_kmq": 12.86,
    "flag_capoluogo": "NO",
    "pageviews": 2041,
    "provincia": "Novara",
    "regione": "Piemonte",
    "abitanti": 1118,
    "immagine": "https://upload.wikimedia.org/wikipedia/commons/thumb/b/bb/Sozzago_veduta.jpg/330px-Sozzago_veduta.jpg"
  },
  {
    "nome_comune": "Suno",
    "codice_provincia": "NO",
    "lat": 45.6311547,
    "lon": 8.5409006,
    "superficie_kmq": 21.3862,
    "flag_capoluogo": "NO",
    "pageviews": 5681,
    "provincia": "Novara",
    "regione": "Piemonte",
    "abitanti": 2676,
    "immagine": "https://upload.wikimedia.org/wikipedia/commons/thumb/c/ca/Suno_veduta.jpg/330px-Suno_veduta.jpg"
  },
  {
    "nome_comune": "Terdobbiate",
    "codice_provincia": "NO",
    "lat": 45.3763443,
    "lon": 8.6951047,
    "superficie_kmq": 8.569,
    "flag_capoluogo": "NO",
    "pageviews": 1321,
    "provincia": "Novara",
    "regione": "Piemonte",
    "abitanti": 460,
    "immagine": "https://upload.wikimedia.org/wikipedia/commons/thumb/2/24/Terdobbiate_Castello.jpg/330px-Terdobbiate_Castello.jpg"
  },
  {
    "nome_comune": "Tornaco",
    "codice_provincia": "NO",
    "lat": 45.3574195,
    "lon": 8.7179151,
    "superficie_kmq": 12.9713,
    "flag_capoluogo": "NO",
    "pageviews": 3262,
    "provincia": "Novara",
    "regione": "Piemonte",
    "abitanti": 874,
    "immagine": "https://upload.wikimedia.org/wikipedia/commons/thumb/a/ad/Tornaco_parrocchiale.jpg/330px-Tornaco_parrocchiale.jpg"
  },
  {
    "nome_comune": "Trecate",
    "codice_provincia": "NO",
    "lat": 45.4318269,
    "lon": 8.7349776,
    "superficie_kmq": 38.3832,
    "flag_capoluogo": "NO",
    "pageviews": 14895,
    "provincia": "Novara",
    "regione": "Piemonte",
    "abitanti": 21194,
    "immagine": "https://upload.wikimedia.org/wikipedia/commons/thumb/2/2e/BandieraTrecate.png/330px-BandieraTrecate.png"
  },
  {
    "nome_comune": "Vaprio d'Agogna",
    "codice_provincia": "NO",
    "lat": 45.6035576,
    "lon": 8.5540248,
    "superficie_kmq": 10.1734,
    "flag_capoluogo": "NO",
    "pageviews": 1839,
    "provincia": "Novara",
    "regione": "Piemonte",
    "abitanti": 953,
    "immagine": "https://upload.wikimedia.org/wikipedia/commons/thumb/3/3b/Vaprio_d%E2%80%99Agogna_piazza.jpg/330px-Vaprio_d%E2%80%99Agogna_piazza.jpg"
  },
  {
    "nome_comune": "Varallo Pombia",
    "codice_provincia": "NO",
    "lat": 45.6671991,
    "lon": 8.6334322,
    "superficie_kmq": 13.6061,
    "flag_capoluogo": "NO",
    "pageviews": 10046,
    "provincia": "Novara",
    "regione": "Piemonte",
    "abitanti": 4991,
    "immagine": "https://upload.wikimedia.org/wikipedia/commons/thumb/f/fc/Varallo_Pombia_paese.jpg/330px-Varallo_Pombia_paese.jpg"
  },